City_ID,City,Lat,Lng,Max Temp,Humidity,Cloudiness,Wind Speed,Country,Date
0,Adrar,20.5022,-10.0711,89.42,19,0,9.91,MR,1681734041
1,Tilichiki,60.4667,166.1,30.2,98,100,14.2,RU,1681733880
2,Albany,42.6001,-73.9662,59.18,90,100,7.85,US,1681734042
3,Suoyarvi,62.0833,32.35,40.51,85,87,2.55,RU,1681734042
4,Bluff,-46.6,168.3333,52.81,79,100,9.86,NZ,1681734042
5,Te Anau,-45.4167,167.7167,55.04,77,100,3.2,NZ,1681733841
6,Pangody,65.85,74.4859,14.04,91,100,12.75,RU,1681734043
7,Mataura,-46.1927,168.8643,52.48,73,100,2.59,NZ,1681734044
8,Punta Arenas,-53.15,-70.9167,37.51,87,100,17.27,CL,1681733953
9,Hermanus,-34.4187,19.2345,67.86,60,2,2.51,ZA,1681734044
10,Eureka,40.8021,-124.1637,47.01,95,100,7.49,US,1681733832
11,Ullapool,57.8987,-5.1604,68.34,61,77,1.63,GB,1681734045
12,Raudeberg,61.9875,5.1352,54.27,74,42,6.06,NO,1681734045
13,Busselton,-33.65,115.3333,60.3,75,57,8.97,AU,1681734045
14,Arrondissement de Mayenne,48.3333,-0.6667,60.24,59,96,11.05,FR,1681734045
15,Vostok,46.4856,135.8833,30.42,64,8,2.15,RU,1681734046
16,Yulara,-25.2406,130.9889,64.96,38,8,8.03,AU,1681734047
17,Rikitea,-23.1203,-134.9692,79.56,81,51,11.56,PF,1681734047
18,Vestmannaeyjar,63.4427,-20.2734,47.39,100,100,13.8,IS,1681733982
19,Lebu,-37.6167,-73.65,47.57,87,8,7.05,CL,1681734047
20,Sablé-sur-Sarthe,47.8376,-0.3329,61.56,53,89,11.7,FR,1681734048
21,Mar del Plata,-38.0023,-57.5575,55.94,87,0,6.91,AR,1681734048
22,Loukhi,66.0764,33.0381,37.56,68,98,4.68,RU,1681734048
23,Naze,28.3667,129.4833,67.12,65,0,7.16,JP,1681734048
24,Puerto Ayora,-0.7393,-90.3518,75.54,100,96,1.99,EC,1681734049
25,Vaini,-21.2,-175.2,77.16,88,75,14.97,TO,1681734049
26,Saint Paul Harbor,57.79,-152.4072,29.71,47,100,21.85,US,1681734049
27,Alofi,-19.0595,-169.9187,76.89,78,100,9.22,NU,1681734049
28,Kresttsy,58.2452,32.5165,51.13,62,99,3.56,RU,1681734049
29,Srednekolymsk,67.45,153.6833,20.75,95,95,4.65,RU,1681734050
30,Butaritari,3.0707,172.7902,81.52,81,81,9.1,KI,1681734050
31,Bend,44.0582,-121.3153,35.49,77,0,5.75,US,1681734051
32,Lagoa,39.05,-27.9833,56.97,68,81,16.71,PT,1681734052
33,Antalaha,-14.9003,50.2788,82.31,74,32,12.64,MG,1681733834
34,Ancud,-41.8697,-73.8203,44.8,77,70,6.17,CL,1681734052
35,Lashio,22.9333,97.75,88.59,19,11,4.9,MM,1681734052
36,Kapaa,22.0752,-159.319,71.1,91,0,5.75,US,1681733848
37,Aldan,58.6031,125.3894,14.72,93,100,4.59,RU,1681734052
38,Ponta do Sol,32.6667,-17.1,77.72,69,94,1.36,PT,1681734053
39,Khilok,51.3674,110.4676,25.83,40,45,5.75,RU,1681734053
40,Ushuaia,-54.8,-68.3,38.86,70,75,3.44,AR,1681733837
41,Constitución,-35.3333,-72.4167,47.73,75,0,8.03,CL,1681733967
42,Whitehaven,54.549,-3.5841,54.66,91,100,1.01,GB,1681734055
43,Chui,-33.6971,-53.4616,59.76,79,98,6.93,UY,1681733952
44,Thompson,55.7435,-97.8558,4.77,99,82,4.29,CA,1681733705
45,Ahipara,-35.1667,173.1667,65.68,81,76,13.6,NZ,1681734055
46,Oriximiná,-1.7656,-55.8661,78.03,90,100,3.74,BR,1681733960
47,Nanortalik,60.1432,-45.2371,33.62,80,99,6.35,GL,1681733852
48,Yellowknife,62.456,-114.3525,32.56,74,20,13.0,CA,1681734056
49,Barrow,71.2906,-156.7887,-16.58,83,0,14.97,US,1681733837
50,Maniitsoq,65.4167,-52.9,25.93,61,6,4.97,GL,1681734057
51,Fortuna,40.5982,-124.1573,46.74,95,100,4.63,US,1681734057
52,Handan,36.6006,114.4678,73.58,47,69,4.83,CN,1681734057
53,Babynino,54.39,35.73,55.15,36,98,5.3,RU,1681734058
54,Labuhan,-6.8844,112.2051,80.67,82,96,6.78,ID,1681734067
55,Thinadhoo,0.5333,72.9333,84.31,67,10,5.06,MV,1681734068
56,Henderson,36.0397,-114.9819,69.17,28,0,11.5,US,1681733386
57,Hobyo,5.3505,48.5268,86.38,63,25,12.62,SO,1681733852
58,Hilo,19.7297,-155.09,72.28,94,0,5.75,US,1681733845
59,Bredasdorp,-34.5322,20.0403,80.31,30,5,4.07,ZA,1681734069
60,Passagem Franca,-6.1797,-43.7836,81.57,74,100,1.7,BR,1681734070
61,Calabozo,8.9242,-67.4293,78.64,67,100,9.28,VE,1681734071
62,Nome,64.5011,-165.4064,1.47,66,0,5.75,US,1681734072
63,Saint-Philippe,-21.3585,55.7679,85.59,77,74,6.51,RE,1681734021
64,Hot Springs,34.5037,-93.0552,42.91,86,0,0.0,US,1681734073
65,Lagos,6.5833,3.75,91.72,56,98,8.57,NG,1681734000
66,Darnah,32.767,22.6367,64.06,81,4,18.7,LY,1681733866
67,Jamestown,42.097,-79.2353,45.01,70,100,12.66,US,1681733893
68,Ambovombe,-25.1667,46.0833,77.2,58,22,14.92,MG,1681734076
69,Arrondissement de Cahors,44.4167,1.3333,57.4,52,31,9.24,FR,1681734076
70,Chokurdakh,70.6333,147.9167,-5.78,100,29,2.93,RU,1681734076
71,Coyhaique,-45.5752,-72.0662,39.81,65,75,4.61,CL,1681733992
72,Yerbogachën,61.2767,108.0108,13.41,88,93,3.09,RU,1681734079
73,Hambantota,6.1241,81.1185,85.35,68,20,9.15,LK,1681734080
74,Severo-Kuril'sk,50.6789,156.125,34.68,97,92,20.0,RU,1681734021
75,Arraial do Cabo,-22.9661,-42.0278,78.76,69,0,17.27,BR,1681734081
76,Cape Town,-33.9258,18.4232,75.38,59,0,11.5,ZA,1681734000
77,Tuktoyaktuk,69.4541,-133.0374,6.22,99,99,6.55,CA,1681734085
78,Muzaffarabad,34.37,73.4711,84.36,34,100,1.97,PK,1681734086
79,Amos,48.5669,-78.1162,52.47,97,100,5.17,CA,1681734086
80,Mahébourg,-20.4081,57.7,79.09,83,40,1.14,MU,1681734086
81,Hobart,-42.8794,147.3294,52.05,82,20,9.22,AU,1681734026
82,Ilulissat,69.2167,-51.1,24.82,80,100,14.97,GL,1681733976
83,Ixtapa,20.7,-105.2,68.23,88,0,0.0,MX,1681734089
84,Atuona,-9.8,-139.0333,80.33,81,17,18.23,PF,1681734090
85,Kaa-Khem,51.6833,94.7333,43.79,52,100,4.74,RU,1681734091
86,Río Gallegos,-51.6226,-69.2181,37.45,60,0,14.97,AR,1681733894
87,Khatanga,71.9667,102.5,10.2,90,100,10.47,RU,1681734093
88,Provideniya,64.3833,-173.3,2.39,100,98,2.04,RU,1681734019
89,Sur,22.5667,59.5289,83.01,55,22,7.83,OM,1681734094
90,Isla Mujeres,21.2311,-86.731,68.16,72,10,11.54,MX,1681734095
91,New Norfolk,-42.7826,147.0587,51.71,73,14,2.3,AU,1681734095
92,Gornoye Loo,43.7129,39.6049,64.18,68,99,5.35,RU,1681734095
93,Meulaboh,4.1363,96.1285,81.68,77,16,1.45,ID,1681734095
94,Boshnyakovo,49.6333,142.1667,26.06,91,25,10.18,RU,1681734095
95,Dali,25.7,100.1833,71.17,29,64,10.02,CN,1681734097
96,Matara,5.9485,80.5353,84.6,68,49,5.86,LK,1681734097
97,Ailigandí,9.2333,-78.0167,77.13,82,89,6.15,PA,1681734098
98,Bodden Town,19.2833,-81.25,79.93,89,20,2.3,KY,1681734098
99,Saskylakh,71.9167,114.0833,3.7,99,100,6.53,RU,1681734098
100,Zhigansk,66.7697,123.3711,19.06,95,77,6.02,RU,1681734098
101,Farīdpur,23.6,89.8333,101.62,21,6,6.93,BD,1681734100
102,Codrington,-38.2667,141.9667,58.03,93,66,7.78,AU,1681734100
103,Dikson,73.5069,80.5464,10.78,95,76,7.74,RU,1681733852
104,Yorkton,51.2167,-102.4677,31.84,74,0,13.8,CA,1681733911
105,Avera,33.194,-82.5271,53.55,65,90,8.5,US,1681734101
106,Walvis Bay,-22.9575,14.5053,83.35,36,0,5.75,NA,1681734101
107,Lafiagi,8.8667,5.4167,101.53,30,97,3.8,NG,1681734102
108,Saldanha,-33.0117,17.9442,86.05,65,5,11.16,ZA,1681734104
109,Anyang,36.0994,114.3289,74.53,61,99,0.85,CN,1681734105
110,Nikolskoye,59.7035,30.7861,55.29,44,55,4.32,RU,1681734106
111,Pasni,25.2631,63.471,81.97,66,87,11.14,PK,1681734106
112,Rio Grande,-32.035,-52.0986,62.71,81,70,11.9,BR,1681734106
113,Banda Aceh,5.5577,95.3222,83.57,74,50,2.42,ID,1681734107
114,Dunedin,-45.8742,170.5036,58.44,72,100,3.89,NZ,1681734107
115,Baker City,44.7749,-117.8344,35.6,88,20,9.22,US,1681734108
116,Poum,-20.2333,164.0167,79.23,83,97,22.66,NC,1681733991
117,Mount Isa,-20.7333,139.5,69.57,46,0,11.5,AU,1681734108
118,Riyadh,24.6877,46.7219,77.14,39,92,6.96,SA,1681733911
119,Castro,-24.7911,-50.0119,67.21,90,43,8.03,BR,1681734111
120,Moose Factory,51.2585,-80.6094,35.6,87,0,6.91,CA,1681734111
121,Ambunti,-4.2365,142.8448,75.33,98,98,0.92,PG,1681734111
122,Pisco,-13.7,-76.2167,71.65,78,40,5.75,PE,1681734112
123,Hamilton,39.1834,-84.5333,44.04,70,100,21.85,US,1681733870
124,San Lorenzo,-25.3333,-57.5333,68.94,94,100,5.99,PY,1681734114
125,Tateyama,34.9833,139.8667,58.69,62,34,9.51,JP,1681734114
126,Leningradskiy,69.3833,178.4167,-6.14,89,31,5.35,RU,1681734114
127,Pacific Grove,36.6177,-121.9166,50.11,88,100,3.44,US,1681734060
128,Bassano,50.7834,-112.4685,40.23,45,65,24.36,CA,1681734115
129,Carnarvon,-24.8667,113.6333,73.02,58,88,20.13,AU,1681734116
130,East London,-33.0153,27.9116,85.14,42,0,6.91,ZA,1681734116
131,Pierre,44.3683,-100.351,30.27,80,0,4.0,US,1681734116
132,Tiksi,71.6872,128.8694,1.65,99,98,2.24,RU,1681734116
133,Adamovka,51.5223,59.9396,42.67,53,18,8.75,RU,1681734117
134,Hithadhoo,-0.6,73.0833,84.67,67,44,5.82,MV,1681734117
135,George Town,5.4112,100.3354,87.75,70,20,6.91,MY,1681734117
136,Itainópolis,-7.4469,-41.4783,86.85,49,100,5.1,BR,1681734118
137,Cabo San Lucas,22.8909,-109.9124,69.51,64,15,9.24,MX,1681734021
138,Białystok,53.1333,23.15,60.04,51,100,10.13,PL,1681734119
139,Mandalgovi,45.7625,106.2708,43.09,30,5,7.81,MN,1681734120
140,San Quintín,30.4833,-115.95,55.81,82,94,13.18,MX,1681734120
141,Harper,4.375,-7.7169,85.66,67,56,7.18,LR,1681734120
142,Soubre,5.7856,-6.6083,84.27,67,96,1.57,CI,1681734121
143,Salinópolis,-0.6136,-47.3561,80.31,85,57,3.24,BR,1681734121
144,Avarua,-21.2078,-159.775,73.45,53,78,4.61,CK,1681734121
145,Rodrigues Alves,-7.738,-72.6509,77.2,98,98,2.26,BR,1681734122
146,Bandarbeyla,9.4942,50.8122,84.96,62,5,10.38,SO,1681734122
147,Sauga,58.4272,24.495,57.15,47,75,3.44,EE,1681734123
148,San Patricio,28.017,-97.5169,69.84,70,0,7.92,US,1681734123
149,Longyearbyen,78.2186,15.6401,35.44,80,100,21.85,SJ,1681734123
150,Gimli,50.6336,-96.9907,28.42,64,6,10.36,CA,1681734125
151,Broome,42.2506,-75.833,50.02,87,100,9.22,US,1681733851
152,Bethel,41.3712,-73.414,56.25,90,100,5.75,US,1681734126
153,Port Alfred,-33.5906,26.891,80.19,46,0,1.99,ZA,1681734127
154,Ngunguru,-35.6167,174.5,65.35,86,9,19.51,NZ,1681734127
155,Hong Kong,22.2855,114.1577,82.2,86,39,15.01,HK,1681734070
156,Guerrero Negro,27.9769,-114.0611,56.53,85,33,16.84,MX,1681734131
157,Luwuk,-0.9516,122.7875,79.75,88,100,1.68,ID,1681734131
158,Sambava,-14.2667,50.1667,82.24,73,13,13.51,MG,1681734132
159,Cidreira,-30.1811,-50.2056,68.49,85,88,12.37,BR,1681734132
160,Vilhena,-12.7406,-60.1458,77.22,83,0,6.91,BR,1681734041
161,Camocim,-2.9022,-40.8411,80.78,81,100,6.55,BR,1681734133
162,Najrān,17.4924,44.1277,88.45,21,7,8.86,SA,1681733872
163,Faanui,-16.4833,-151.75,80.74,76,40,8.84,PF,1681733872
164,Tynset,62.2759,10.7824,47.82,56,41,2.17,NO,1681734134
165,Mbanza-Ngungu,-5.25,14.8667,69.78,93,100,6.42,CD,1681734137
166,Campo Maior,-4.8278,-42.1686,79.92,81,98,3.49,BR,1681734137
167,Acushnet,41.6807,-70.9078,52.93,87,100,5.75,US,1681734137
168,Mpika,-11.8343,31.4529,62.69,91,100,6.64,ZM,1681733957
169,Ola,59.5833,151.2833,26.15,90,57,6.64,RU,1681734138
170,College,64.8569,-147.8028,19.38,73,75,0.0,US,1681733927
171,Mount Gambier,-37.8333,140.7667,56.5,94,66,6.38,AU,1681734140
172,Aleysk,52.4926,82.7822,28.35,92,100,9.6,RU,1681734140
173,Cherskiy,68.75,161.3,7.14,88,5,5.53,RU,1681734141
174,Clifton,40.8584,-74.1638,57.16,95,100,5.75,US,1681734141
175,Olafsvik,64.8945,-23.7142,45.55,85,25,13.91,IS,1681734142
176,Wenling,28.3669,121.36,63.03,97,39,6.46,CN,1681734143
177,Upington,-28.4478,21.2561,88.18,20,0,13.8,ZA,1681734144
178,Letlhakane,-21.4167,25.5833,82.85,23,4,2.82,BW,1681734144
179,Tabas,33.5959,56.9244,80.82,17,73,11.5,IR,1681734159
180,Roblin,51.23,-101.3565,29.89,83,5,10.33,CA,1681734159
181,Winnemucca,40.973,-117.7357,35.65,51,0,3.44,US,1681734041
182,Acarí,-15.4311,-74.6158,72.61,79,100,0.63,PE,1681734161
183,Port Lincoln,-34.7333,135.8667,62.29,89,53,12.1,AU,1681734161
184,Kieta,-6.2167,155.6333,77.99,78,42,3.94,PG,1681734161
185,Pundaguitan,6.3711,126.1689,83.3,75,11,11.79,PH,1681734161
186,Mopipi,-21.1833,24.8833,81.99,29,3,4.92,BW,1681734162
187,Dotnuva,55.35,23.9,53.89,74,92,4.81,LT,1681734162
188,Necochea,-38.5473,-58.7368,54.54,75,33,11.07,AR,1681734162
189,Norman Wells,65.282,-126.8329,15.84,79,75,14.97,CA,1681734163
190,Léo,11.1,-2.1,101.62,18,60,6.93,BF,1681734165
191,Kudahuvadhoo,2.6708,72.8944,84.13,66,27,3.53,MV,1681734123
192,Sept-Îles,50.2001,-66.3821,41.43,64,40,14.97,CA,1681734165
193,Iquitos,-3.7481,-73.2472,77.04,94,75,3.44,PE,1681734166
194,Hamada,34.8833,132.0833,51.3,68,5,5.97,JP,1681734170
195,Rockhampton,-23.3833,150.5,76.89,69,100,4.61,AU,1681734066
196,Tasiilaq,65.6145,-37.6368,33.96,93,100,16.91,GL,1681734171
197,Bambous Virieux,-20.3428,57.7575,79.05,83,40,1.14,MU,1681734172
198,Kamenka,51.3223,42.7678,57.34,29,91,7.02,RU,1681734173
199,Zhuhai,22.2769,113.5678,80.31,88,40,9.22,CN,1681733821
200,The Valley,18.217,-63.0578,82.26,78,40,9.22,AI,1681734175
201,Dingle,10.9995,122.6711,80.31,81,82,4.23,PH,1681734175
202,Iisalmi,63.5592,27.1907,40.08,74,94,5.1,FI,1681734176
203,Urucará,-2.5364,-57.76,78.82,88,100,0.74,BR,1681734176
204,Aljezur,37.3191,-8.8033,77.83,30,0,3.62,PT,1681734177
205,Bunia,1.5667,30.25,82.76,46,94,9.08,CD,1681734177
206,Caravelas,-17.7125,-39.2481,81.41,69,40,3.22,BR,1681734177
207,Qaanaaq,77.484,-69.3632,3.85,77,5,5.79,GL,1681734178
208,Pangnirtung,66.1451,-65.7125,3.2,85,0,3.44,CA,1681734021
209,Torbay,47.6666,-52.7314,34.75,86,100,5.75,CA,1681734181
210,Comodoro Rivadavia,-45.8667,-67.5,37.26,60,0,4.61,AR,1681733981
211,Lahaina,20.8783,-156.6825,72.81,85,6,1.19,US,1681734184
212,Russell,32.3502,-85.1999,49.28,93,0,0.0,US,1681734136
213,Menzel Salem,35.8567,8.4765,58.69,46,70,16.08,TN,1681734185
214,Puerto del Rosario,28.5004,-13.8627,74.95,50,20,13.8,ES,1681734186
215,Upernavik,72.7868,-56.1549,-0.29,100,99,8.7,GL,1681734187
216,Maryborough,-25.5333,152.7,73.85,71,47,10.83,AU,1681734187
217,Dagda,56.0951,27.5372,54.97,63,98,1.86,LV,1681734188
218,Qorveh,35.1664,47.8045,63.05,25,52,1.72,IR,1681734189
219,Shelburne,44.0787,-80.2041,41.45,78,96,11.99,CA,1681734189
220,Juegang,32.3174,121.1855,64.04,88,28,11.43,CN,1681734189
221,Joshīmath,30.5667,79.5667,68.54,50,54,3.24,IN,1681734190
222,Saint George,37.1041,-113.5841,50.59,43,0,0.0,US,1681733904
223,Camacha,33.0833,-16.3333,65.62,68,20,16.11,PT,1681734193
224,Batemans Bay,-35.7167,150.1833,57.09,89,0,4.07,AU,1681734195
225,Ridgecrest,35.6225,-117.6709,59.47,50,0,6.91,US,1681733783
226,Bengkulu,-3.8004,102.2655,80.15,81,80,1.03,ID,1681734197
227,Tuatapere,-46.1333,167.6833,55.98,74,100,6.91,NZ,1681734198
228,Taksimo,56.3444,114.8794,18.99,70,86,2.57,RU,1681734199
229,Puerto Carreño,6.189,-67.4859,78.78,89,75,8.05,CO,1681734206
230,Lębork,54.5392,17.7501,48.52,72,93,11.01,PL,1681734207
231,Makkah al Mukarramah,21.4267,39.8261,94.59,32,3,13.27,SA,1681734172
232,Hays,30.0502,-98.0336,55.0,62,6,4.7,US,1681734210
233,Douglas,41.3,-96.167,37.31,63,0,6.91,US,1681734211
234,Le Port,-20.9373,55.2919,86.0,94,47,3.78,RE,1681734211
235,Nayoro,44.3506,142.4578,25.5,96,88,3.78,JP,1681734212
236,Ustyuzhna,58.8394,36.4321,47.16,73,100,3.69,RU,1681734212
237,Hammerfest,70.6634,23.6821,39.65,87,75,13.8,NO,1681734212
238,Nakusp,50.2499,-117.8023,35.47,100,100,2.3,CA,1681734213
239,Nové Hrady,48.7896,14.7784,56.23,75,98,6.53,CZ,1681734213
240,Caála,-12.8525,15.5606,74.73,61,100,7.58,AO,1681734215
241,Oktyabr'skoye,43.0645,44.7417,42.94,76,100,6.71,RU,1681734217
242,Nybro,56.7446,15.9071,50.81,33,15,9.93,SE,1681734218
243,Kristiansund,63.1115,7.732,56.05,35,0,3.44,NO,1681734218
244,Kapit,2.0167,112.9333,81.66,73,100,1.43,MY,1681734219
245,São João da Barra,-21.6403,-41.0511,78.89,80,0,6.04,BR,1681734219
246,Beya,53.0533,90.9139,31.8,96,100,1.59,RU,1681734220
247,Pangai,-19.8,-174.35,78.91,89,75,18.41,TO,1681734221
248,Port Elizabeth,-33.918,25.5701,86.09,44,0,3.44,ZA,1681734221
249,Khovd,48.0056,91.6419,56.16,22,38,32.99,MN,1681734221
250,Moorhead,46.8739,-96.7676,30.97,82,0,10.36,US,1681734221
251,Baharly,38.4362,57.4316,61.03,28,6,7.52,TM,1681734224
252,Kita,13.0349,-9.4895,103.24,9,77,8.72,ML,1681734224
253,Turukhansk,65.8167,87.9833,13.37,80,100,3.91,RU,1681734224
254,Honiara,-9.4333,159.95,75.22,86,9,4.88,SB,1681734224
255,Hofn,64.2539,-15.2082,46.42,100,100,14.97,IS,1681734226
256,Requena,39.4883,-1.1004,63.79,25,1,5.66,ES,1681734226
257,Harstad,68.799,16.5293,45.16,93,95,11.01,NO,1681734227
258,Kaitangata,-46.2817,169.8464,61.93,75,100,2.55,NZ,1681733848
259,Vitim,59.4511,112.5578,16.11,92,100,3.13,RU,1681734227
260,Bom Jesus,-9.0744,-44.3586,86.36,53,100,2.86,BR,1681734228
261,Hervey Bay,-25.2986,152.8535,75.49,75,41,22.24,AU,1681734233
262,Hailar,49.2,119.7,47.26,28,100,18.57,CN,1681734234
263,Ipil,7.75,122.5167,77.58,77,2,4.7,PH,1681734235
264,Sheridan,44.8333,-106.9173,41.45,69,0,4.61,US,1681734236
265,Ribeira Grande,38.5167,-28.7,63.0,63,40,12.66,PT,1681734238
266,Klaksvík,62.2266,-6.589,50.92,97,98,17.87,FO,1681734239
267,Alice Springs,-23.7,133.8833,53.15,82,0,6.91,AU,1681734244
268,Hamakita,34.8,137.7833,54.84,53,0,11.56,JP,1681734246
269,Sola,-13.8833,167.55,82.81,71,98,11.41,VU,1681734246
270,Guasdualito,7.2424,-70.7324,77.0,88,75,2.3,VE,1681734247
271,Vaitape,-16.5167,-151.75,80.76,76,43,8.79,PF,1681734247
272,Los Llanos de Aridane,28.6585,-17.9182,67.75,69,75,11.5,ES,1681734253
273,Vila Velha,-20.3297,-40.2925,80.55,79,20,6.91,BR,1681734257
274,São Félix do Xingu,-6.6447,-51.995,77.38,89,80,0.81,BR,1681734257
275,La Sarre,48.8002,-79.1996,50.79,96,100,7.07,CA,1681734036
276,Marsá Maţrūḩ,31.3525,27.2453,81.14,32,0,4.7,EG,1681734257
277,Naryan-Mar,67.6713,53.087,30.94,92,86,2.66,RU,1681734258
278,Grants Pass,42.439,-123.3284,44.11,82,100,2.68,US,1681734154
279,Ol'ga,43.7444,135.2892,38.84,74,49,4.9,RU,1681734259
280,Sakaiminato,35.55,133.2333,53.58,82,75,5.75,JP,1681734260
281,‘Āhuimanu,21.4447,-157.8378,76.71,89,100,3.44,US,1681734269
282,Northam,51.0333,-4.2167,59.25,83,45,5.82,GB,1681734271
283,Bambanglipuro,-7.95,110.2833,79.14,76,55,1.74,ID,1681734272
284,Sitka,57.0531,-135.33,39.09,87,100,3.44,US,1681734272
285,Bowen,-20.0167,148.2333,76.12,82,69,8.34,AU,1681734272
286,Mayo,38.8876,-76.5119,59.14,63,100,18.41,US,1681734273
287,Narsaq,60.9167,-46.05,44.82,57,100,0.83,GL,1681734273
288,Mīrābād,30.4362,61.8383,77.97,20,57,26.46,AF,1681734274
289,Kruisfontein,-34.0033,24.7314,83.88,29,9,9.8,ZA,1681734274
290,Ayagoz,47.9714,80.4392,48.74,39,47,17.27,KZ,1681734275
291,Osypenko,46.9136,36.8253,55.36,45,81,25.66,UA,1681734275
292,Chulym,55.0997,80.9572,21.94,57,100,20.2,RU,1681734275
293,Wellin,50.0813,5.1141,48.88,86,98,10.74,BE,1681734276
294,Lavrentiya,65.5833,-171.0,-6.38,100,74,3.89,RU,1681734277
295,Dawson Creek,55.7666,-120.2362,38.84,81,100,13.8,CA,1681734277
296,Salalah,17.0151,54.0924,87.89,66,20,12.66,OM,1681733988
297,Ondjiva,-17.0667,15.7333,87.84,27,20,11.5,AO,1681734282
298,Nemuro,43.3236,145.575,34.83,76,100,19.75,JP,1681734282
299,Samarai,-10.6167,150.6667,80.49,73,100,3.18,PG,1681734282
300,Saint-Pierre,-21.3393,55.4781,85.68,62,20,4.61,RE,1681734283
301,Chapleau,47.8405,-83.4034,32.09,100,100,3.44,CA,1681734283
302,Talcahuano,-36.7167,-73.1167,40.68,87,0,4.61,CL,1681734283
303,Souillac,-20.5167,57.5167,79.18,83,40,1.14,MU,1681734284
304,Shūshtar,32.0455,48.8567,87.31,20,11,8.46,IR,1681734284
305,Nosy Varika,-20.5833,48.5333,80.1,69,23,9.42,MG,1681734284
306,Ouallam,14.3188,2.0866,103.75,5,0,6.69,NE,1681734285
307,Jalu,29.0331,21.5482,90.48,11,51,5.35,LY,1681734285
308,Gladstone,-23.85,151.25,76.93,69,40,3.44,AU,1681734285
309,Portland,45.5234,-122.6762,42.62,85,58,1.99,US,1681733524
310,Airai,-8.9266,125.4092,62.19,97,100,1.48,TL,1681734285
311,Kumul,42.8,93.45,74.86,18,49,2.24,CN,1681734285
312,Port Hardy,50.6996,-127.4199,41.0,93,40,11.5,CA,1681734286
313,Margate,51.3813,1.3862,55.11,80,73,5.01,GB,1681734205
314,Griffith,41.5284,-87.4237,33.1,85,100,14.97,US,1681734286
315,Yauya,-8.9833,-77.3,45.52,93,100,2.91,PE,1681734286
316,Ürümqi,43.801,87.6005,59.95,59,90,17.9,CN,1681734286
317,Oranjemund,-28.55,16.4333,77.22,39,17,5.75,NA,1681734287
318,Guilin,25.2819,110.2864,71.71,81,100,2.17,CN,1681734287
319,Rochester,43.1548,-77.6156,46.98,92,100,5.75,US,1681733869
320,Jasper,37.2001,-94.3502,39.02,69,0,3.44,US,1681734288
321,Kloulklubed,7.0419,134.2556,79.3,73,23,7.92,PW,1681734288
322,Amparafaravola,-17.5833,48.2167,79.02,58,95,8.9,MG,1681734288
323,Rassvet,46.8333,40.75,55.67,45,100,21.77,RU,1681734288
324,Teya,60.3778,92.6267,28.6,86,100,6.13,RU,1681734289
325,Jijiga,9.35,42.8,78.75,36,44,4.43,ET,1681734289
326,Ketchikan,55.3422,-131.6461,37.38,93,100,0.0,US,1681734289
327,Kavaratti,10.5669,72.642,84.67,69,31,4.21,IN,1681734289
328,Santander Jiménez,24.2167,-98.4667,64.81,83,56,3.0,MX,1681734289
329,Sabinas,27.85,-101.1167,60.71,57,13,10.56,MX,1681734292
330,Aykhal,66.0,111.5,26.06,96,100,8.32,RU,1681734292
331,Dongsheng,39.8161,109.9776,60.33,23,47,11.39,CN,1681734292
332,Kununurra,-15.7667,128.7333,66.18,77,20,0.0,AU,1681734293
333,Shimoda,34.6667,138.95,57.11,70,2,4.03,JP,1681734293
334,Isangel,-19.55,169.2667,82.51,89,40,8.05,VU,1681734293
335,Grindavik,63.8424,-22.4338,51.75,87,75,23.02,IS,1681734293
336,Cairns,-16.9167,145.7667,78.75,87,100,6.91,AU,1681734128
337,Vila Franca do Campo,37.7167,-25.4333,63.01,61,62,9.89,PT,1681734294
338,Buraidah,26.326,43.975,84.65,37,22,6.82,SA,1681734294
339,Doha,25.2867,51.5333,86.31,43,0,11.5,QA,1681734196
340,Takoradze,4.8845,-1.7554,86.31,66,98,7.81,GH,1681734294
341,Katsuura,35.1333,140.3,56.71,65,24,9.4,JP,1681734190
342,Pedernales,18.0384,-71.744,78.78,75,3,1.66,DO,1681734295
343,Tembisa,-25.9964,28.2268,73.42,45,0,4.0,ZA,1681734295
344,Puerto Escondido,15.85,-97.0667,77.83,78,20,6.91,MX,1681734296
345,Hay River,60.8156,-115.7999,37.38,65,75,12.66,CA,1681734212
346,High Level,58.5169,-117.136,44.71,49,75,14.97,CA,1681734019
347,Kočevje,45.6433,14.8633,59.58,65,100,13.69,SI,1681734296
348,Fukuechō,32.6881,128.8419,60.12,65,57,11.1,JP,1681734296
349,São Filipe,14.8961,-24.4956,75.31,77,41,15.08,CV,1681734296
350,Bubaque,11.2833,-15.8333,78.73,71,44,6.96,GW,1681734297
351,Port Blair,11.6667,92.75,84.42,67,15,3.51,IN,1681734297
352,Puerto Maldonado,-12.6,-69.1833,75.6,94,0,0.0,PE,1681734273
353,Athabasca,54.7169,-113.2854,43.21,74,100,15.86,CA,1681734298
354,San Jerónimo,-11.9472,-75.2829,49.51,89,100,0.67,PE,1681734298
355,Sabang,5.8933,95.3214,85.1,68,14,3.09,ID,1681734160
356,Sungai Penuh,-2.0833,101.3833,68.5,98,93,1.45,ID,1681734299
357,Vysotsk,60.6288,28.5705,44.17,60,57,4.76,RU,1681734300
358,Cacoal,-11.4386,-61.4472,75.63,93,68,1.81,BR,1681734300
359,Tucumcari,35.1717,-103.725,44.44,45,0,5.75,US,1681734300
360,Christchurch,-43.5333,172.6333,59.92,87,100,6.91,NZ,1681734132
361,Lata,40.1629,-8.3327,78.93,35,37,5.61,PT,1681734301
362,Port Augusta,-32.5,137.7667,65.75,45,60,3.02,AU,1681734301
363,Pevek,69.7008,170.3133,-4.88,86,7,6.24,RU,1681734302
364,Oruzgan,32.8333,66.0,54.7,77,100,8.66,AF,1681734303
365,Yuncheng,35.0231,110.9928,73.13,50,100,5.1,CN,1681734303
366,Saint Anthony,45.0205,-93.218,32.14,75,0,20.71,US,1681734304
367,Pandan Niog,6.2282,120.5631,83.88,73,3,5.77,PH,1681734304
368,Namatanai,-3.6667,152.4333,79.43,82,48,4.99,PG,1681734305
369,Acapulco de Juárez,16.8634,-99.8901,75.02,88,0,2.3,MX,1681734111
370,Fairbanks,64.8378,-147.7164,19.4,77,75,0.0,US,1681734305
371,San Isidro,-12.1167,-77.05,76.01,83,100,5.75,PE,1681734306
372,Whakatane,-37.9585,176.9854,63.77,90,10,4.47,NZ,1681734306
373,Sarkand,45.41,79.9186,50.94,51,100,16.35,KZ,1681734306
374,Yangi Marg`ilon,40.4272,71.7189,59.72,58,40,13.8,UZ,1681734307
375,Tigil',57.8,158.6667,33.24,86,100,11.07,RU,1681734307
376,Dukat,62.55,155.55,10.49,100,99,2.82,RU,1681734308
377,Aklavik,68.2191,-135.0107,4.37,90,97,17.43,CA,1681734308
378,Kadoma,34.7333,135.5833,58.98,47,15,3.44,JP,1681734308
379,Kamen'-na-Obi,53.7884,81.3423,28.72,60,100,20.83,RU,1681734308
380,Paraná,-31.732,-60.5238,61.56,86,5,7.34,AR,1681734309
381,Geraldton,-28.7667,114.6,70.21,73,100,17.27,AU,1681734309
382,Sanming,26.2486,117.6186,75.06,62,77,4.23,CN,1681734309
383,Imbituba,-28.24,-48.6703,73.85,89,52,9.15,BR,1681734310
384,Yar-Sale,66.8333,70.8333,11.89,92,96,16.02,RU,1681734310
385,Huarmey,-10.0681,-78.1522,75.69,83,100,7.09,PE,1681734311
386,Kahramanmaraş Province,38.0,37.0,65.07,30,96,8.14,TR,1681734311
387,Hokitika,-42.7167,170.9667,57.81,77,100,6.26,NZ,1681734311
388,Jacareacanga,-6.2222,-57.7528,77.09,91,100,1.43,BR,1681734312
389,Omboué,-1.5746,9.2618,85.48,65,100,1.43,GA,1681734312
390,Selma,36.5708,-119.6121,52.63,88,0,5.75,US,1681734313
391,Quatre Cocos,-20.2078,57.7625,78.91,76,25,10.96,MU,1681734313
392,Fredonia,42.4401,-79.3317,47.05,84,100,11.5,US,1681734313
393,Henties Bay,-22.116,14.2845,73.83,58,74,8.61,NA,1681734314
394,Caloundra,-26.8,153.1333,71.11,92,74,20.38,AU,1681734314
395,Mana,5.6592,-53.7767,78.93,84,87,7.54,GF,1681734314
396,Ulaangom,49.9811,92.0667,36.93,55,70,4.59,MN,1681734314
397,Manali,13.1667,80.2667,93.29,56,0,14.34,IN,1681734110
398,Bogatyye Saby,56.0102,50.4483,51.03,44,100,8.72,RU,1681734316
399,Coxim,-18.5067,-54.76,77.9,84,51,3.27,BR,1681734316
400,Maţāy,28.419,30.7792,94.03,8,0,5.21,EG,1681734316
401,Tiarei,-17.5333,-149.3333,77.02,75,40,9.17,PF,1681734316
402,Tromsø,69.6496,18.957,39.22,87,75,8.05,NO,1681734317
403,Price,39.5994,-110.8107,36.66,48,0,8.05,US,1681734317
404,Havre-St-Pierre,50.2334,-63.5986,35.96,87,100,9.22,CA,1681734317
405,Sørland,67.667,12.6934,46.26,90,53,10.47,NO,1681734318
406,Oberá,-27.4871,-55.1199,66.42,99,96,1.95,AR,1681734318
407,Baghdad,33.3406,44.4009,85.91,23,0,9.22,IQ,1681734222
408,Saint-Joseph,-21.3667,55.6167,84.58,78,62,4.32,RE,1681734318
409,Hasaki,35.7333,140.8333,54.21,53,52,12.12,JP,1681734273
410,Chabahar,25.2919,60.643,80.44,66,75,16.55,IR,1681734319
411,Sokolo,14.7328,-6.1219,101.75,5,24,10.78,ML,1681734319
412,Zwedru,6.0667,-8.1281,86.76,66,96,3.0,LR,1681734319
413,Shingū,33.7333,135.9833,51.93,71,4,6.62,JP,1681734319
414,Meadow Lake,34.8014,-106.5436,54.12,31,96,7.99,US,1681734320
415,Magaria,12.9983,8.9099,102.58,9,93,4.16,NE,1681734320
416,Itarema,-2.9248,-39.9167,78.15,88,100,7.14,BR,1681734320
417,Osorno,-40.5667,-73.15,45.25,100,100,2.3,CL,1681734321
418,San-Pédro,4.7485,-6.6363,87.4,65,76,9.28,CI,1681734321
419,Gillette,44.2911,-105.5022,47.32,40,0,12.66,US,1681734265
420,Plouzané,48.3833,-4.6167,64.58,47,0,8.05,FR,1681734322
421,Hīt,33.6416,42.8251,86.16,17,26,10.67,IQ,1681734322
422,Oddur,4.1213,43.8894,88.63,43,64,14.85,SO,1681734322
423,Pa Sang,18.5262,98.9394,99.18,43,47,6.78,TH,1681734322
424,Fort Nelson,58.8053,-122.7002,42.39,59,75,9.22,CA,1681734215
425,Esperance,-33.8667,121.9,65.17,77,82,21.88,AU,1681734324
426,Waipawa,-41.4122,175.5153,50.47,93,63,6.06,NZ,1681734324
427,Vardø,70.3705,31.1107,35.58,93,75,12.66,NO,1681734324
428,Khotyn,48.4833,26.5,48.42,71,100,4.12,UA,1681734325
429,Rawson,-43.3002,-65.1023,48.33,59,55,14.52,AR,1681734074
430,Iqaluit,63.7506,-68.5145,4.73,78,75,10.36,CA,1681734325
431,Coquimbo,-29.9533,-71.3436,53.33,82,20,2.3,CL,1681734326
432,Boa Vista,2.8197,-60.6733,76.98,88,100,3.44,BR,1681734185
433,Half Moon Bay,37.4636,-122.4286,51.66,88,75,17.27,US,1681734326
434,Kerchevskiy,59.946,56.2884,41.05,61,100,4.81,RU,1681734072
435,Belyy Yar,53.6039,91.3903,31.89,93,40,11.18,RU,1681734327
436,Sibolga,1.7427,98.7792,79.65,86,81,1.52,ID,1681734327
437,Manono,-7.3,27.4167,82.62,68,34,7.47,CD,1681734328
438,Moengo,5.6167,-54.4,80.47,78,85,4.41,SR,1681734328
439,Warri,5.5167,5.75,95.76,45,67,3.8,NG,1681734329
440,Bima,-8.4667,118.7167,76.95,93,63,2.62,ID,1681734330
441,Sholokhove,47.6945,34.0312,57.47,36,94,22.12,UA,1681734330
442,Erenhot,43.6475,111.9767,58.55,16,34,22.82,CN,1681734331
443,Togur,58.3631,82.8265,6.94,74,98,15.01,RU,1681734089
444,Katherine,-14.4667,132.2667,68.32,83,99,4.61,AU,1681734331
445,Mahibadhoo,3.7833,72.9667,84.52,65,28,2.46,MV,1681734331
446,Atasū,48.6814,71.6433,35.38,46,100,17.98,KZ,1681734332
447,Valparaíso,-33.0393,-71.6273,49.64,93,0,5.75,CL,1681734332
448,Marzuq,14.4,46.4667,87.46,20,0,14.92,YE,1681734333
449,Inuvik,68.3499,-133.7218,3.96,85,100,10.36,CA,1681734335
450,Arrondissement de Rennes,48.1667,-1.6667,60.84,48,100,10.36,FR,1681734336
451,Bago,17.3367,96.4797,90.75,48,10,15.5,MM,1681734336
452,Kumo,10.0447,11.2122,99.63,20,97,4.47,NG,1681734337
453,Beyneu,45.3167,55.2,54.79,20,0,2.1,KZ,1681734337
454,Orocovis,18.2271,-66.3917,74.64,94,12,2.55,PR,1681734337
455,Mogadishu,2.0371,45.3438,87.67,74,40,10.36,SO,1681734294
456,Rock Hill,34.9249,-81.0251,51.98,67,0,3.44,US,1681734337
457,Khor,47.8861,134.9464,40.1,46,4,5.55,RU,1681734339
458,Paamiut,61.994,-49.6678,29.57,80,20,24.36,GL,1681734341
459,Yele,10.7323,13.5891,95.4,14,85,5.79,CM,1681734342
460,Brae,60.3964,-1.353,50.09,79,100,16.44,GB,1681734342
461,Bodø,67.28,14.405,46.44,76,40,14.97,NO,1681734342
462,Charters Towers,-20.1,146.2667,71.13,72,69,8.66,AU,1681734342
463,Killin,33.6123,-91.7412,44.69,70,0,5.75,US,1681734343
464,Nouadhibou,20.931,-17.0347,73.38,60,20,16.11,MR,1681734343
465,Curitibanos,-27.2828,-50.5844,62.94,98,86,3.49,BR,1681734343
466,Xam Nua,20.4197,104.0439,81.12,36,31,3.22,LA,1681734344
467,Nioro,13.35,-15.75,101.98,18,4,9.6,GM,1681734344
468,Prince Rupert,54.3161,-130.3201,38.89,91,20,14.97,CA,1681734344
469,Champerico,14.3,-91.9167,79.56,71,5,3.6,GT,1681734345
470,Noyabrsk,63.1994,75.4507,9.32,80,99,13.98,RU,1681734346
471,Wau,7.7029,27.9953,95.13,32,100,5.57,SS,1681734346
472,Koslan,63.4564,48.8989,36.19,98,32,4.09,RU,1681734347
473,Zhangaözen,43.3,52.8,56.19,18,0,7.23,KZ,1681734348
474,Kahului,20.8947,-156.47,72.84,87,0,3.44,US,1681734316
475,Erzin,36.9559,36.2,80.1,32,72,4.29,TR,1681734348
476,Amudat,1.95,34.95,84.94,41,88,14.67,UG,1681734349
477,Byron Bay,-28.65,153.6167,65.71,74,78,18.75,AU,1681734349
478,Oyama,36.3,139.8,61.59,38,4,4.59,JP,1681734350
479,Chissamba,-12.1667,17.3333,71.78,74,94,9.24,AO,1681734350
480,Kyzyl-Suu,42.3414,78.0056,51.01,64,100,4.97,KG,1681734351
481,Santa Rosa,14.3122,121.1114,86.11,79,40,6.58,PH,1681734351
482,Kupang,-10.1667,123.5833,77.58,100,20,2.3,ID,1681734351
483,Padang,-0.9492,100.3543,82.45,84,70,0.85,ID,1681734352
484,Tabou,4.423,-7.3528,85.6,67,66,6.6,CI,1681734352
485,Maralal,1.0968,36.698,71.35,55,96,8.28,KE,1681734352
486,Kaeo,-35.1,173.7833,66.33,87,81,14.54,NZ,1681734352
487,Deputatsky,69.3,139.9,0.05,100,83,2.89,RU,1681734352
488,Redmond,47.674,-122.1215,40.69,90,91,4.0,US,1681734319
489,Palana,59.1167,159.9667,29.08,87,100,8.34,RU,1681734353
490,Eenhana,-17.4667,16.3333,91.08,20,23,10.92,NA,1681734353
491,Qaqortoq,60.7167,-46.0333,35.62,58,100,3.51,GL,1681734353
492,Gizo Government Station,-8.103,156.8419,82.11,66,12,7.45,SB,1681734353
493,Whitehorse,60.7161,-135.0538,30.09,92,75,3.44,CA,1681734353
494,Kholtoson,50.2981,103.3097,27.23,79,78,4.32,RU,1681734354
495,Honningsvåg,70.9821,25.9704,40.75,75,75,12.66,NO,1681734354
496,Tautira,-17.7333,-149.15,81.1,75,58,8.34,PF,1681734354
497,Qurayyat,31.3318,37.3428,87.98,16,20,8.05,SA,1681734354
498,Kencong,-8.2833,113.3667,78.62,84,83,0.38,ID,1681734355
499,Akhmīm,26.5622,31.745,95.7,6,4,11.63,EG,1681734355
500,Casper,42.8666,-106.3131,44.82,49,0,16.11,US,1681734057
501,Rebrikha,53.0733,82.3408,30.47,76,100,10.92,RU,1681734355
502,Fallon,39.4735,-118.7774,48.45,28,100,6.35,US,1681734356
503,Camopi,3.1655,-52.3158,75.0,95,98,0.67,GF,1681734356
504,Sylvan Lake,52.3168,-114.0853,40.35,63,20,6.91,CA,1681734356
505,Babu,24.4167,111.5167,79.52,68,69,4.23,CN,1681734356
506,Antofagasta,-23.65,-70.4,60.08,74,50,5.17,CL,1681734357
507,Georgiyevskoye,58.731,45.024,53.37,32,100,4.61,RU,1681734079
508,Nishihara,26.1842,127.7558,74.86,73,0,9.22,JP,1681734358
509,Acuautla,20.4903,-98.0336,62.24,85,72,2.37,MX,1681734358
510,Edson,53.5835,-116.4356,41.14,65,100,6.91,CA,1681734319
511,Fethiye,36.6217,29.1164,75.07,39,100,9.86,TR,1681734359
512,Andenes,69.3143,16.1194,45.93,81,75,16.11,NO,1681734359
513,Xinzhi,36.4989,111.7047,77.95,32,43,1.03,CN,1681734359
514,Znamenskoye,57.1281,73.8282,24.57,39,100,12.93,RU,1681734360
515,Natal,-5.795,-35.2094,81.25,78,75,3.44,BR,1681734106
516,Buala,-8.145,159.5921,78.04,77,52,4.85,SB,1681734360
517,Buckeye,33.3703,-112.5838,68.11,35,20,0.0,US,1681734316
518,São Miguel do Araguaia,-13.275,-50.1628,81.0,72,49,1.57,BR,1681734363
519,Vanavara,60.34,102.2797,20.71,89,100,2.82,RU,1681734363
520,Ifanadiana,-21.3,47.6333,71.92,91,64,3.74,MG,1681734363
521,Wellington,-41.2866,174.7756,57.87,82,36,3.44,NZ,1681734337
522,Papar,5.7333,115.9333,84.2,83,100,2.75,MY,1681734364
523,Tiznit Province,29.5833,-9.5,83.44,24,27,5.88,MA,1681734365
524,Presidencia Roque Sáenz Peña,-26.7852,-60.4388,64.02,89,93,5.68,AR,1681734365
525,Chernyshevskiy,63.0128,112.4714,8.38,92,99,3.71,RU,1681734367
526,Barabai,-2.5833,115.3833,75.99,96,99,2.68,ID,1681734367
527,Talnakh,69.4865,88.3972,9.21,90,96,4.74,RU,1681734367
528,Lázaro Cárdenas,17.9583,-102.2,74.53,83,34,3.71,MX,1681734367
529,Cap-aux-Meules,47.3821,-61.8597,37.45,93,100,12.66,CA,1681734368
530,Yarmouth,41.7057,-70.2286,52.97,97,100,5.75,US,1681734368
531,Rovaniemi,66.5,25.7167,47.61,39,0,6.91,FI,1681734369
532,Pucallpa,-8.3791,-74.5539,73.56,96,99,0.98,PE,1681734371
533,Lander,42.833,-108.7307,40.01,54,0,11.5,US,1681734372
534,Petropavlovsk-Kamchatskiy,53.0452,158.6483,34.39,93,75,4.47,RU,1681734078
535,Gravdal,68.1214,13.5031,44.49,93,75,5.75,NO,1681734373
536,Krasnosel'kup,65.7,82.4667,15.75,88,100,2.84,RU,1681734373
537,Tottori-shi,35.5,134.2333,53.67,82,75,3.44,JP,1681734301
538,Bondo,3.8146,23.6866,90.5,45,92,2.8,CD,1681734374
539,San Andrés,12.5847,-81.7006,80.62,74,100,6.91,CO,1681734375
540,Bennettsville,34.6174,-79.6848,59.09,53,0,3.44,US,1681734376
541,Lahān,26.7296,86.4951,104.05,7,0,12.68,NP,1681734376
542,Jizan,17.3333,42.6667,92.34,46,4,15.95,SA,1681734378
543,Alindao,5.0267,21.2088,93.83,40,89,5.57,CF,1681734384
544,Baturité,-4.3286,-38.8847,78.64,85,100,3.56,BR,1681734176
545,Gua Musang,4.8823,101.9644,82.78,68,100,0.89,MY,1681734385
546,Kučevo,44.4775,21.67,58.93,91,100,9.28,RS,1681734385
547,Changde,29.0464,111.6783,81.19,62,53,6.62,CN,1681734385
548,Pires do Rio,-17.2997,-48.2794,73.6,81,25,3.36,BR,1681734386
549,Dicabisagan,17.0818,122.4157,77.05,96,95,0.27,PH,1681734386
550,Nyazepetrovsk,56.0531,59.6028,39.97,38,100,11.99,RU,1681734386
551,Dalian,38.9122,121.6022,51.73,76,75,22.37,CN,1681734387
552,Carlos Chagas,-17.7031,-40.7664,75.51,75,99,1.19,BR,1681734387
553,Dolores,-36.3132,-57.6792,53.02,68,46,3.74,AR,1681734096
554,Monaragala,6.8714,81.3487,86.74,57,43,7.56,LK,1681734387
555,Sampit,-2.5333,112.95,77.92,89,100,3.02,ID,1681734387
556,Mahon,39.8885,4.2658,63.16,45,0,20.71,ES,1681734388
557,Myaundzha,63.0494,147.1858,8.33,98,96,3.96,RU,1681734388
558,Azoyú,16.7167,-98.7333,72.7,78,22,2.35,MX,1681734388
559,Tarakan,3.3,117.6333,81.9,83,40,4.61,ID,1681734389
560,Nago,26.5881,127.9761,75.63,81,0,10.13,JP,1681734389
561,Sorrento,40.626,14.3744,62.22,88,75,3.0,IT,1681734389
562,Fonte Boa,-2.4959,-66.2662,72.81,99,100,3.02,BR,1681734390
563,Fushun,41.8558,123.9233,53.31,37,100,9.78,CN,1681734390
564,Manokwari,-0.8667,134.0833,79.57,84,100,8.43,ID,1681734390
565,Touros,-5.1989,-35.4608,80.4,83,100,12.86,BR,1681734391
566,Laas,46.6166,10.7002,61.7,61,68,3.24,IT,1681734391
567,Makakilo City,21.3469,-158.0858,75.52,83,75,3.44,US,1681734392
568,Béjar,40.3864,-5.7634,71.58,28,80,11.86,ES,1681734392
569,Otorohanga,-38.1833,175.2,54.16,92,4,4.52,NZ,1681734392
570,Sabancuy,18.9667,-91.1833,74.75,83,93,6.15,MX,1681734393
571,Llangefni,53.2556,-4.3106,54.73,90,100,5.75,GB,1681734393
572,Phayakkhaphum Phisai,15.5163,103.1937,98.56,34,77,4.72,TH,1681734393
573,Korla,41.7597,86.1469,72.57,24,38,3.85,CN,1681734394
574,Simbahan,6.3032,120.5836,84.2,71,0,6.17,PH,1681734394
575,Manaure,11.7751,-72.4445,78.03,76,51,6.76,CO,1681734394
576,Bud,39.447,-86.1758,41.05,87,99,20.0,US,1681734394
577,Yumen,40.2833,97.2,65.14,26,85,11.14,CN,1681734394
578,Shahdol,23.2833,81.35,101.35,9,27,11.43,IN,1681734201
579,Pimentel,-6.8367,-79.9342,77.29,88,75,3.44,PE,1681734396
580,Sakakah,29.9697,40.2064,87.37,23,34,9.19,SA,1681734397
581,Dunda,-8.1167,34.25,79.07,55,75,4.18,TZ,1681734398
582,Province of Groningen,53.25,6.75,60.15,70,40,11.5,NL,1681734398
583,Aswān,24.0934,32.907,95.68,5,2,6.6,EG,1681733837
584,Ostrovnoy,68.0531,39.5131,33.28,70,13,5.35,RU,1681734402
585,Namie,37.4833,141.0,45.99,68,23,9.33,JP,1681734402
586,Colares,38.7992,-9.4469,84.97,17,0,11.5,PT,1681734403
587,Batī,11.1833,40.0167,80.26,40,21,9.84,ET,1681734403
588,São José da Coroa Grande,-8.8978,-35.1478,82.85,74,99,5.1,BR,1681734403
589,North Bend,43.4065,-124.2243,44.17,91,75,4.61,US,1681734405
590,Baijiantan,45.6333,85.1833,62.92,39,100,27.0,CN,1681734405
591,Lorengau,-2.0226,147.2712,80.49,81,100,6.2,PG,1681734405
592,Nokaneng,-19.6667,22.2667,87.62,27,7,5.88,BW,1681734405
593,Boende,-0.2167,20.8667,84.33,65,82,1.66,CD,1681734406
