City_ID,City,Lat,Lng,Max Temp,Humidity,Cloudiness,Wind Speed,Country,Date
0,Half Moon Bay,37.4636,-122.4286,53.37,60,100,21.85,US,1680009355
1,Talcahuano,-36.7167,-73.1167,55.08,100,100,4.61,CL,1680009455
2,Butaritari,3.0707,172.7902,82.13,80,40,15.28,KI,1680009456
3,Lebu,-37.6167,-73.65,55.72,94,75,6.6,CL,1680009458
4,Cape Town,-33.9258,18.4232,74.12,50,1,10.0,ZA,1680009300
5,Bang Rakam,16.7585,100.1174,95.04,50,1,3.44,TH,1680009458
6,Mataura,-46.1927,168.8643,44.47,80,51,1.23,NZ,1680009461
7,Mastic Beach,40.7668,-72.8521,44.11,91,100,3.44,US,1680009451
8,Albany,42.6001,-73.9662,39.92,84,99,1.99,US,1680009463
9,Thaba-Tseka,-29.522,28.6084,65.84,38,18,21.9,LS,1680009463
10,Berlevåg,70.8578,29.0864,30.2,69,100,14.97,NO,1680009463
11,Talnakh,69.4865,88.3972,-11.79,99,96,5.35,RU,1680009466
12,Vao,-22.6667,167.4833,76.64,81,20,16.53,NC,1680009468
13,Kapaa,22.0752,-159.319,71.58,89,0,5.75,US,1680009469
14,Taoudenni,22.6783,-3.9836,100.47,7,100,11.72,ML,1680009469
15,Castro,-24.7911,-50.0119,68.45,77,41,5.84,BR,1680009472
16,Fougamou,-1.2154,10.5838,84.34,77,100,2.1,GA,1680009474
17,Srednekolymsk,67.45,153.6833,2.7,77,89,8.14,RU,1680009475
18,Tayu,-6.5397,111.0518,78.71,86,100,4.41,ID,1680009476
19,Baruun-Urt,46.6806,113.2792,41.2,36,18,9.06,MN,1680009477
20,Coahuayana Viejo,18.7333,-103.6833,65.55,67,0,3.29,MX,1680009477
21,Litovko,49.2361,135.1742,28.9,75,6,5.44,RU,1680009478
22,Brunswick,41.2381,-81.8418,37.89,88,40,3.0,US,1680009480
23,Mana,5.6592,-53.7767,78.42,81,96,8.5,GF,1680009481
24,Wanning,18.8003,110.3967,74.77,94,35,5.12,CN,1680009481
25,Acaraú,-2.8856,-40.12,80.67,77,57,3.33,BR,1680009370
26,Barrow,71.2906,-156.7887,3.22,78,75,20.71,US,1680009483
27,Senanga,-16.1167,23.2667,84.4,46,52,5.06,ZM,1680009484
28,Tarko-Sale,64.9225,77.785,12.16,92,100,13.09,RU,1680009484
29,Bengkulu,-3.8004,102.2655,79.0,84,100,2.24,ID,1680009485
30,Batagay,67.6333,134.6333,10.74,92,100,11.25,RU,1680009486
31,Cherskiy,68.75,161.3,0.84,84,21,12.97,RU,1680009486
32,Ushuaia,-54.8,-68.3,37.02,75,20,4.61,AR,1680009487
33,Grand Gaube,-20.0064,57.6608,84.6,77,100,7.34,MU,1680009487
34,São Sebastião,-23.76,-45.4097,79.21,70,41,2.89,BR,1680009210
35,Lagoa,39.05,-27.9833,59.83,81,100,29.86,PT,1680009488
36,Chokurdakh,70.6333,147.9167,15.12,88,100,6.58,RU,1680009489
37,Hualmay,-11.0964,-77.6139,75.94,76,84,5.44,PE,1680009490
38,Busselton,-33.65,115.3333,64.4,58,0,13.65,AU,1680009490
39,Qui Nhon,13.7667,109.2333,77.72,85,45,1.59,VN,1680009450
40,Saldanha,-33.0117,17.9442,64.96,77,64,19.66,ZA,1680009495
41,Puerto Ayora,-0.7393,-90.3518,79.56,96,20,1.95,EC,1680009496
42,Longyearbyen,78.2186,15.6401,3.04,66,20,4.61,SJ,1680009496
43,Port Elizabeth,-33.918,25.5701,82.69,21,0,9.22,ZA,1680009482
44,Nikolskoye,59.7035,30.7861,33.69,91,100,4.41,RU,1680009497
45,Ancud,-41.8697,-73.8203,52.56,76,100,13.69,CL,1680009499
46,Freeport,40.6576,-73.5832,45.25,83,100,3.44,US,1680009499
47,Lompoc,34.6391,-120.4579,49.93,78,0,4.61,US,1680009499
48,Ouésso,1.6136,16.0517,92.21,41,99,3.33,CG,1680009500
49,Mayumba,-3.432,10.6554,78.8,87,100,10.36,GA,1680009501
50,Prince Rupert,54.3161,-130.3201,35.51,72,9,4.63,CA,1680009223
51,Ponta do Sol,32.6667,-17.1,78.12,19,100,4.09,PT,1680009502
52,Avarua,-21.2078,-159.775,73.45,100,100,8.05,CK,1680009508
53,Salalah,17.0151,54.0924,84.29,74,40,13.8,OM,1680009353
54,Port Macquarie,-31.4333,152.9167,67.89,90,100,5.91,AU,1680009510
55,Krasnosel'kup,65.7,82.4667,6.1,90,100,6.93,RU,1680009511
56,Dikson,73.5069,80.5464,-6.56,96,100,13.67,RU,1680009514
57,Hilo,19.7297,-155.09,73.27,92,40,5.75,US,1680009514
58,Saint-Philippe,-21.3585,55.7679,81.99,72,90,5.44,RE,1680009516
59,Leningradskiy,69.3833,178.4167,-7.04,81,1,8.14,RU,1680009517
60,Vila Franca do Campo,37.7167,-25.4333,61.21,86,99,24.56,PT,1680009518
61,Tasiilaq,65.6145,-37.6368,12.36,66,37,4.23,GL,1680009519
62,Brae,60.3964,-1.353,41.65,63,95,5.08,GB,1680009520
63,Rikitea,-23.1203,-134.9692,79.7,75,100,10.87,PF,1680009520
64,New Norfolk,-42.7826,147.0587,58.5,90,100,1.07,AU,1680009520
65,Nouakchott,18.0858,-15.9785,100.33,31,0,8.5,MR,1680009456
66,Guerrero Negro,27.9769,-114.0611,57.4,63,8,9.35,MX,1680009521
67,Sidi Ali,36.0998,0.4206,66.96,38,0,12.15,DZ,1680009521
68,Karaj,35.8355,51.0103,66.72,37,20,11.5,IR,1680009521
69,Clyde River,70.4692,-68.5914,-12.77,77,100,2.3,CA,1680009521
70,Russell,32.3502,-85.1999,65.48,100,100,4.61,US,1680009521
71,Aleksandrovskoye,44.7142,43.0008,63.45,52,100,16.78,RU,1680009521
72,Ust-Tsilma,65.441,52.1498,24.06,81,100,9.08,RU,1680009522
73,Quzhou,28.9594,118.8686,53.13,74,100,4.81,CN,1680009522
74,Arrondissement d'Ajaccio,42.0,8.9167,58.98,45,0,11.5,FR,1680009522
75,Muros,42.7762,-9.0603,71.69,43,74,9.95,ES,1680009522
76,Ribeira Grande,38.5167,-28.7,60.78,82,75,20.71,PT,1680009523
77,Jamestown,42.097,-79.2353,38.84,93,0,1.99,US,1680009127
78,Esperance,-33.8667,121.9,61.74,69,5,8.79,AU,1680009526
79,Atuona,-9.8,-139.0333,80.76,77,100,17.22,PF,1680009526
80,Cabo San Lucas,22.8909,-109.9124,66.51,79,20,3.44,MX,1680009527
81,Okakarara,-20.5833,17.4333,82.58,39,83,5.46,NA,1680009528
82,Tiksi,71.6872,128.8694,-1.37,92,100,16.62,RU,1680009528
83,Privolzhskiy,51.4,46.0333,52.32,50,100,5.01,RU,1680009528
84,Luganville,-15.5333,167.1667,77.81,85,100,3.83,VU,1680009528
85,Paracatu,-17.2222,-46.8747,79.34,51,100,7.0,BR,1680009499
86,Sangar,63.9242,127.4739,1.69,99,86,4.5,RU,1680009529
87,Bella Union,-30.2752,-57.6007,72.36,50,33,10.67,UY,1680009530
88,Amga,60.8953,131.9608,29.08,96,78,4.45,RU,1680009530
89,Tooele,40.5308,-112.2983,32.07,44,40,17.27,US,1680009531
90,Santa Isabel Rio Negro,-0.4139,-65.0192,79.92,78,100,0.43,BR,1680009532
91,Faanui,-16.4833,-151.75,81.93,74,33,11.05,PF,1680009533
92,Lavrentiya,65.5833,-171.0,6.1,99,100,1.59,RU,1680009535
93,Kalnibolotskaya,46.0058,40.4568,62.67,58,100,15.03,RU,1680009535
94,Hong Kong,22.2855,114.1577,69.33,85,100,8.01,HK,1680009454
95,Pevek,69.7008,170.3133,-3.93,77,8,17.09,RU,1680009536
96,Kruisfontein,-34.0033,24.7314,77.58,21,100,15.7,ZA,1680009536
97,Kothāpet,19.3333,79.4833,94.41,15,10,2.71,IN,1680009362
98,Arrondissement de Morlaix,48.5833,-4.0,57.2,75,100,19.57,FR,1680009538
99,Yar-Sale,66.8333,70.8333,0.9,97,100,7.25,RU,1680009538
100,Krasnoarmeyskoye,52.7182,50.0322,54.52,48,33,12.01,RU,1680009539
101,Qaanaaq,77.484,-69.3632,-10.43,67,89,5.59,GL,1680009539
102,Kununurra,-15.7667,128.7333,76.98,78,100,4.61,AU,1680009542
103,Hobart,-42.8794,147.3294,58.86,97,100,2.3,AU,1680009303
104,Hithadhoo,-0.6,73.0833,83.21,74,100,5.91,MV,1680009544
105,Kiryat Gat,31.61,34.7642,76.41,32,0,10.96,IL,1680009545
106,Bluff,-46.6,168.3333,44.8,55,98,11.52,NZ,1680009546
107,Bembèrèkè,10.2283,2.6634,99.75,21,15,5.55,BJ,1680009547
108,Airai,-8.9266,125.4092,59.94,94,100,2.28,TL,1680009547
109,Matsusaka,34.5667,136.5333,53.49,62,0,6.51,JP,1680009280
110,Jumla,29.2747,82.1838,48.7,68,98,4.76,NP,1680009547
111,Mossamedes,-15.1961,12.1522,78.39,80,100,3.6,AO,1680009549
112,Buala,-8.145,159.5921,80.08,83,100,5.35,SB,1680009552
113,Coruripe,-10.1256,-36.1756,84.67,58,10,6.98,BR,1680009552
114,Kieta,-6.2167,155.6333,80.53,81,100,2.77,PG,1680009553
115,Meulaboh,4.1363,96.1285,76.95,91,100,3.56,ID,1680009553
116,Norman Wells,65.282,-126.8329,24.84,93,75,0.0,CA,1680009555
117,Tazmalt,36.3868,4.3989,69.78,26,0,2.68,DZ,1680009555
118,Khatanga,71.9667,102.5,-11.07,96,100,12.33,RU,1680009556
119,Mâncio Lima,-7.6142,-72.8958,75.27,100,75,1.14,BR,1680009556
120,Yellowknife,62.456,-114.3525,-1.44,71,75,9.22,CA,1680009557
121,Frolishchi,56.4211,42.6533,45.97,72,100,6.33,RU,1680009559
122,Sitka,57.0531,-135.33,39.09,65,0,10.36,US,1680009560
123,Hermanus,-34.4187,19.2345,68.81,74,2,10.83,ZA,1680009562
124,Altay,47.8667,88.1167,36.5,77,9,5.55,CN,1680009563
125,Mt. Pleasant,32.7941,-79.8626,66.34,92,100,5.01,US,1680009441
126,Alice Springs,-23.7,133.8833,88.21,40,100,4.61,AU,1680009564
127,Mahébourg,-20.4081,57.7,84.49,70,40,5.75,MU,1680009569
128,Olafsvik,64.8945,-23.7142,31.62,55,100,12.91,IS,1680009571
129,Mwense,-10.3845,28.698,73.58,78,100,4.54,ZM,1680009572
130,Saint George,37.1041,-113.5841,39.25,41,0,4.61,US,1680009572
131,Evensk,61.95,159.2333,-0.38,90,23,6.8,RU,1680009572
132,Punta Arenas,-53.15,-70.9167,39.22,81,40,4.61,CL,1680009574
133,Vaini,-21.2,-175.2,75.36,94,20,2.3,TO,1680009574
134,Katangli,51.7102,143.2326,19.54,94,84,5.79,RU,1680009576
135,Hasaki,35.7333,140.8333,51.22,70,89,15.5,JP,1680009580
136,Majene,-3.5403,118.9707,79.79,83,100,5.48,ID,1680009581
137,Arraial do Cabo,-22.9661,-42.0278,82.36,69,75,6.91,BR,1680009488
138,Irricana,51.3237,-113.6048,15.64,92,11,5.08,CA,1680009584
139,Cidreira,-30.1811,-50.2056,73.49,62,0,14.23,BR,1680009456
140,Carnarvon,-24.8667,113.6333,76.17,70,85,11.1,AU,1680009586
141,Katsuura,35.1333,140.3,54.77,78,100,15.68,JP,1680009586
142,Itarema,-2.9248,-39.9167,80.62,79,79,3.74,BR,1680009587
143,Tuktoyaktuk,69.4541,-133.0374,21.2,93,100,9.22,CA,1680009588
144,Moranbah,-22.0016,148.0466,73.9,68,29,9.93,AU,1680009588
145,Warmbad,-28.45,18.7333,91.09,14,0,16.98,NA,1680009589
146,Tura,25.5198,90.2201,72.91,41,13,2.59,IN,1680009590
147,Jiuquan,39.7432,98.5174,53.53,13,5,6.82,CN,1680009590
148,Dunedin,-45.8742,170.5036,45.81,72,100,3.0,NZ,1680009324
149,Lepe,37.2548,-7.2043,76.1,48,40,8.86,ES,1680009594
150,São Filipe,14.8961,-24.4956,76.17,66,0,8.77,CV,1680009594
151,Namatanai,-3.6667,152.4333,78.85,84,86,5.32,PG,1680009595
152,Bredasdorp,-34.5322,20.0403,71.51,50,96,17.22,ZA,1680009595
153,Arlit,18.7369,7.3853,92.08,7,0,5.35,NE,1680009596
154,Henties Bay,-22.116,14.2845,68.09,76,18,10.18,NA,1680009597
155,Chakwal,32.9334,72.8585,73.9,34,13,4.07,PK,1680009599
156,Yasothon,15.75,104.1333,91.04,40,89,8.81,TH,1680009328
157,Grădiştea,44.2333,27.2167,48.11,57,100,7.0,RO,1680009599
158,Chui,-33.6971,-53.4616,71.74,59,100,11.18,UY,1680009601
159,Sisimiut,66.9395,-53.6735,9.0,69,0,6.02,GL,1680009601
160,Chapais,49.7834,-74.8492,13.78,87,33,5.03,CA,1680009602
161,Salinópolis,-0.6136,-47.3561,79.83,84,100,7.09,BR,1680009603
162,Weligama,5.9667,80.4167,80.76,79,67,2.01,LK,1680009605
163,Rutul,41.5357,47.4239,57.2,38,0,5.88,RU,1680009606
164,Bergen,60.392,5.328,38.88,89,75,23.02,NO,1680009606
165,Hamilton,39.1834,-84.5333,43.61,88,0,5.75,US,1680009500
166,Padang,-0.9492,100.3543,75.25,85,100,0.87,ID,1680009607
167,Port Alfred,-33.5906,26.891,76.17,64,100,3.0,ZA,1680009607
168,Thunder Bay,48.4001,-89.3168,12.4,91,33,6.22,CA,1680009356
169,Newport,51.5877,-2.9984,50.07,90,100,22.17,GB,1680008830
170,Waterloo,43.4668,-80.5164,35.47,91,20,6.91,CA,1680009398
171,Severo-Kuril'sk,50.6789,156.125,31.12,89,86,15.05,RU,1680009611
172,Lüderitz,-26.6481,15.1594,71.82,66,4,10.25,NA,1680009611
173,East London,-33.0153,27.9116,77.94,65,0,11.5,ZA,1680009611
174,Coyhaique,-45.5752,-72.0662,40.95,87,100,4.61,CL,1680009612
175,Port Blair,11.6667,92.75,82.44,74,40,4.61,IN,1680009612
176,Río Gallegos,-51.6226,-69.2181,35.65,80,0,8.05,AR,1680009404
177,Yarmouth,41.7057,-70.2286,41.97,92,100,10.0,US,1680009617
178,Ambilobe,-13.2,49.05,81.91,85,100,4.36,MG,1680009618
179,Tevriz,57.509,72.4042,46.15,86,99,9.17,RU,1680009618
180,Talas,38.6908,35.5538,50.67,62,75,11.5,TR,1680009619
181,Ishigaki,24.3448,124.1572,69.93,78,100,18.41,JP,1680009620
182,Ilebo,-4.3167,20.5833,94.66,36,77,1.54,CD,1680009620
183,General Roca,-39.0333,-67.5833,68.63,39,99,12.57,AR,1680009620
184,Fort Nelson,58.8053,-122.7002,16.92,97,90,2.73,CA,1680009355
185,Provideniya,64.3833,-173.3,21.24,95,100,10.31,RU,1680009622
186,Linqing,36.8456,115.7117,61.36,32,100,10.13,CN,1680009624
187,The Valley,18.217,-63.0578,81.1,70,4,12.82,AI,1680009513
188,Slonim,53.0867,25.3219,37.53,46,100,15.05,BY,1680009628
189,San Patricio,28.017,-97.5169,73.35,87,100,19.01,US,1680009334
190,Haines Junction,60.7522,-137.5108,13.95,73,100,1.14,CA,1680009632
191,Petropavlovsk-Kamchatskiy,53.0452,158.6483,30.79,59,0,11.18,RU,1680009632
192,Klaksvík,62.2266,-6.589,40.12,76,100,27.45,FO,1680009634
193,Arrondissement de Saint-Denis,48.9167,2.3333,53.24,52,0,16.11,FR,1680009634
194,Samarai,-10.6167,150.6667,83.1,75,70,12.37,PG,1680009635
195,Yerbogachën,61.2767,108.0108,19.0,93,100,13.0,RU,1680009635
196,Kachīry,53.0675,76.1036,54.73,56,16,6.17,KZ,1680009637
197,Itaituba,-4.2761,-55.9836,82.56,78,40,0.0,BR,1680009638
198,Ta Khmau,11.4833,104.95,89.65,58,40,9.22,KH,1680009638
199,Minot,48.2325,-101.2963,1.62,92,0,13.8,US,1680009626
200,Helong,42.5397,128.9972,36.57,48,15,4.74,CN,1680009642
201,Morro Bay,35.3658,-120.8499,46.76,33,7,3.0,US,1680009645
202,Luena,-11.7833,19.9167,68.18,94,40,4.61,AO,1680009646
203,Cayenne,4.9333,-52.3333,80.64,78,75,10.36,GF,1680009647
204,Mutare,-18.9707,32.6709,61.81,90,100,1.03,ZW,1680009648
205,Ruska Poliana,49.417,31.9201,46.04,92,100,11.5,UA,1680009649
206,Bara,10.3744,10.7288,100.98,6,19,11.36,NG,1680009649
207,Karla,59.3723,24.9275,37.56,57,20,8.05,EE,1680009649
208,Liverpool,53.4106,-2.9779,48.74,90,75,14.97,GB,1680009356
209,Sistranda,63.7256,8.834,31.96,61,3,17.09,NO,1680009650
210,Tommot,58.9564,126.2925,31.57,91,100,3.74,RU,1680009650
211,Flin Flon,54.7682,-101.865,-18.56,76,20,3.44,CA,1680009650
212,Hoi An,15.8794,108.335,73.36,92,49,4.83,VN,1680009650
213,Linxia Chengguanzhen,35.6003,103.2064,51.04,31,72,6.2,CN,1680009650
214,Esik,43.3552,77.4525,54.82,48,1,4.32,KZ,1680009651
215,Laas,46.6166,10.7002,53.69,45,35,5.82,IT,1680009651
216,Caravelas,-17.7125,-39.2481,85.96,49,0,6.02,BR,1680009651
217,Wewak,-3.5534,143.6268,80.87,74,94,4.79,PG,1680009651
218,Dingle,10.9995,122.6711,77.68,80,100,6.78,PH,1680009652
219,Verkhnevilyuysk,63.4453,120.3167,14.32,94,100,12.33,RU,1680009652
220,Homer,59.6425,-151.5483,35.76,86,100,0.0,US,1680009551
221,Te Anau,-45.4167,167.7167,36.68,88,72,4.59,NZ,1680009652
222,Kawardha,22.0167,81.25,88.54,17,0,5.55,IN,1680009367
223,Curup,-3.4667,102.5333,69.76,99,100,0.92,ID,1680009653
224,Elizabeth City,36.2946,-76.2511,57.22,92,75,5.75,US,1680009653
225,Thompson,55.7435,-97.8558,-14.64,76,40,3.44,CA,1680009653
226,Rochester,43.1548,-77.6156,36.72,95,100,1.99,US,1680009447
227,Mount Forest,43.9795,-80.7221,32.4,90,92,2.06,CA,1680009653
228,Mount Gambier,-37.8333,140.7667,53.35,89,18,4.7,AU,1680009653
229,Puerto Escondido,15.85,-97.0667,74.23,73,0,8.05,MX,1680009654
230,Bilibino,68.0546,166.4372,-18.31,98,6,4.63,RU,1680009654
231,George Town,5.4112,100.3354,84.13,87,20,4.61,MY,1680009419
232,Lata,40.1629,-8.3327,76.91,31,100,5.64,PT,1680009654
233,Isangel,-19.55,169.2667,79.05,84,100,5.77,VU,1680009654
234,Roald,62.5833,6.1333,39.99,41,0,9.22,NO,1680009654
235,North Bend,43.4065,-124.2243,41.92,95,100,0.0,US,1680009355
236,Morondava,-20.2833,44.2833,85.66,61,100,12.06,MG,1680009655
237,Kaka,37.3482,59.6143,63.75,67,100,10.18,TM,1680009655
238,San Luis,-33.295,-66.3356,74.62,50,0,6.64,AR,1680009656
239,Sibolga,1.7427,98.7792,79.05,87,100,2.04,ID,1680009656
240,Hambantota,6.1241,81.1185,81.43,76,24,7.7,LK,1680009656
241,Santiago del Estero,-27.7951,-64.2615,79.88,55,13,15.55,AR,1680009656
242,Liaozhong,41.5061,122.7242,46.18,32,0,7.99,CN,1680009656
243,Tutóia,-2.7619,-42.2744,79.48,85,46,0.6,BR,1680009656
244,Lexington Park,38.2668,-76.4538,49.66,94,75,3.44,US,1680009656
245,Marawi,7.9986,124.2928,69.62,97,100,1.72,PH,1680009657
246,Vieste,41.8825,16.175,51.67,39,1,23.58,IT,1680009657
247,Evans,33.5337,-82.1307,61.02,99,0,0.0,US,1680009358
248,Asău,46.4333,26.4,42.28,37,100,14.63,RO,1680009657
249,Saint Augustine,29.8947,-81.3145,71.06,95,100,8.05,US,1680009435
250,Broadstairs,51.3591,1.4394,45.79,81,100,5.99,GB,1680009657
251,Taltal,-25.4,-70.4833,69.49,73,3,3.56,CL,1680009657
252,Ostrovnoy,68.0531,39.5131,21.79,88,20,13.76,RU,1680009657
253,Caranavi,-15.8167,-67.55,71.33,66,26,1.05,BO,1680009658
254,Bundaberg,-24.85,152.35,75.22,91,8,5.59,AU,1680009372
255,Doka,13.5167,35.7667,98.02,11,100,9.75,SD,1680009659
256,Ternate,0.8,127.4,80.67,79,100,3.04,ID,1680009659
257,Wajima,37.4,136.9,46.13,61,0,9.64,JP,1680009659
258,Portales,34.1862,-103.3344,25.93,42,54,5.73,US,1680009456
259,Bethel,41.3712,-73.414,42.03,85,100,6.91,US,1680009659
260,Christchurch,-43.5333,172.6333,43.0,87,75,20.71,NZ,1680009552
261,Deputatsky,69.3,139.9,8.19,95,100,7.16,RU,1680009660
262,Faya,18.3851,42.4509,71.71,42,37,9.69,SA,1680009660
263,Baracoa,20.3467,-74.4958,77.23,77,77,8.43,CU,1680009664
264,Paita,-5.0892,-81.1144,77.92,83,100,8.55,PE,1680009665
265,Turan,16.0678,108.2208,73.38,88,75,10.36,VN,1680009626
266,Maun,-19.9833,23.4167,69.64,74,100,5.82,BW,1680009667
267,Hay River,60.8156,-115.7999,-2.22,78,75,5.75,CA,1680009667
268,Aklavik,68.2191,-135.0107,22.84,96,100,7.72,CA,1680009668
269,Mareeba,-17.0,145.4333,70.48,98,7,1.59,AU,1680009669
270,Upernavik,72.7868,-56.1549,-16.31,89,37,7.29,GL,1680009670
271,Panalingaan,8.7842,117.4231,78.93,81,100,8.61,PH,1680009671
272,Barabinsk,55.3571,78.357,37.09,95,84,9.78,RU,1680009671
273,Sovetsk,55.0839,21.8785,35.98,46,100,18.45,RU,1680009672
274,Kathu,7.9178,98.3332,85.69,99,74,3.71,TH,1680009672
275,Pemangkat,1.1667,108.9667,80.2,83,97,8.03,ID,1680009673
276,Hofn,64.2539,-15.2082,31.3,77,100,17.87,IS,1680009674
277,Saint Anthony,45.0205,-93.218,18.1,64,0,5.75,US,1680009501
278,Ryōtsu-minato,38.0833,138.4333,43.74,63,0,6.8,JP,1680009675
279,Port Hardy,50.6996,-127.4199,41.0,100,20,2.3,CA,1680009675
280,Sovetskoye,52.2861,85.4131,33.49,99,100,3.0,RU,1680009676
281,Najrān,17.4924,44.1277,86.65,25,95,15.05,SA,1680009677
282,Cândido Mendes,-1.4467,-45.7167,80.65,84,100,3.36,BR,1680009677
283,Vostok,46.4856,135.8833,26.02,81,8,5.75,RU,1680009677
284,Nemuro,43.3236,145.575,34.72,86,4,8.72,JP,1680009678
285,Beckley,37.7782,-81.1882,44.31,80,100,3.44,US,1680009678
286,Oussouye,12.485,-16.5469,100.58,13,7,7.78,SN,1680009678
287,Altamira,-3.2033,-52.2064,80.69,83,75,2.3,BR,1680009678
288,Ilulissat,69.2167,-51.1,8.62,72,75,6.91,GL,1680009679
289,Codrington,-38.2667,141.9667,55.63,84,6,5.7,AU,1680009680
290,Omboué,-1.5746,9.2618,81.32,78,99,8.61,GA,1680009680
291,Tungor,53.3808,142.9564,19.26,93,10,7.31,RU,1680009680
292,Casas Grandes,30.3667,-107.95,47.7,23,100,5.68,MX,1680009681
293,São João da Barra,-21.6403,-41.0511,82.49,71,88,8.08,BR,1680009681
294,Kavieng,-2.5744,150.7967,80.91,78,100,5.64,PG,1680009681
295,Kungurtug,50.5994,97.5228,27.01,90,16,1.63,RU,1680009682
296,Sept-Îles,50.2001,-66.3821,35.06,91,100,4.61,CA,1680009682
297,Rocha,-34.4833,-54.3333,69.89,55,100,11.41,UY,1680009683
298,Mabaruma,8.2,-59.7833,81.32,63,100,6.55,GY,1680009683
299,La Ronge,55.1001,-105.2842,-14.55,76,0,1.14,CA,1680009683
300,Manavālakurichi,8.1333,77.3,82.49,75,89,3.91,IN,1680009683
301,Batemans Bay,-35.7167,150.1833,71.1,95,100,6.08,AU,1680009684
302,Utete,-7.986,38.758,80.33,89,100,3.04,TZ,1680009684
303,Xam Nua,20.4197,104.0439,64.76,91,70,3.78,LA,1680009684
304,Talara,-4.5772,-81.2719,80.46,73,100,5.5,PE,1680009684
305,Torbay,47.6666,-52.7314,35.28,93,100,12.66,CA,1680009685
306,Buffalo,42.8865,-78.8784,36.48,89,75,8.05,US,1680009122
307,Springbok,-29.6643,17.8865,78.96,21,0,17.27,ZA,1680009686
308,Ponta Delgada,37.7333,-25.6667,61.52,88,40,28.77,PT,1680009686
309,Hays,30.0502,-98.0336,60.96,54,100,8.01,US,1680009686
310,Guangyuan,32.442,105.823,56.84,79,100,2.62,CN,1680009687
311,Donetsk,48.0,37.8,58.21,49,100,17.22,UA,1680009687
312,Saint Paul,44.9444,-93.0933,18.73,62,0,5.75,US,1680009688
313,Saint Paul Harbor,57.79,-152.4072,27.91,86,0,0.0,US,1680009688
314,Shiyan,32.6475,110.7781,57.42,53,13,3.38,CN,1680009688
315,Gizo Government Station,-8.103,156.8419,82.63,77,100,7.67,SB,1680009688
316,Pakxan,18.3778,103.6601,87.93,46,24,1.59,LA,1680009689
317,Mont-Dore,-22.2833,166.5833,73.38,89,28,6.11,NC,1680009689
318,Sioux Lookout,50.1001,-91.917,-3.93,71,20,2.3,CA,1680009689
319,Aden,12.7794,45.0367,83.32,74,23,8.16,YE,1680009476
320,San Nicolas,18.1725,120.5953,79.25,75,11,8.59,PH,1680009690
321,Richards Bay,-28.783,32.0377,81.18,49,0,12.35,ZA,1680009690
322,Grasse,43.6667,6.9167,56.08,41,0,13.8,FR,1680009690
323,Juegang,32.3174,121.1855,53.91,63,100,9.08,CN,1680009690
324,Aksarka,66.5606,67.7975,-0.47,97,82,6.78,RU,1680009691
325,Esim,4.8699,-2.2405,87.37,62,26,9.91,GH,1680009691
326,Bereda,43.2686,-7.5406,73.15,36,100,7.34,ES,1680009691
327,Sinazongwe,-17.2614,27.4618,81.25,55,100,9.55,ZM,1680009692
328,Los Llanos de Aridane,28.6585,-17.9182,76.75,21,0,10.36,ES,1680009692
329,Port Keats,-14.25,129.55,79.84,67,78,3.69,AU,1680009692
330,Yangi Marg`ilon,40.4272,71.7189,75.92,22,100,2.3,UZ,1680009693
331,Thaton,16.9206,97.3714,81.72,60,1,5.53,MM,1680009693
332,Egvekinot,66.3167,-179.1667,-5.91,99,100,2.06,RU,1680009693
333,Ifanadiana,-21.3,47.6333,72.16,96,96,4.09,MG,1680009693
334,Wakefield,53.6809,-1.499,48.63,86,100,12.48,GB,1680009694
335,Eldorado,-23.7869,-54.2836,76.93,81,67,8.95,BR,1680009694
336,Saskylakh,71.9167,114.0833,-10.66,94,100,10.16,RU,1680009694
337,Ionia,42.9873,-85.0711,35.85,79,0,0.0,US,1680009694
338,Punta Gorda,26.9298,-82.0454,78.01,96,100,4.0,US,1680008834
339,Negombo,7.2083,79.8358,82.2,78,16,8.32,LK,1680009695
340,Broken Hill,-31.95,141.4333,71.71,57,60,10.18,AU,1680009695
341,Khuzdar,27.7384,66.6434,69.19,42,100,16.28,PK,1680009695
342,Santa Lucía,27.9117,-15.5407,69.12,57,0,25.32,ES,1680009695
343,Umm Kaddadah,13.6017,26.6876,92.34,9,61,14.25,SD,1680009696
344,Anito,12.4497,125.2886,77.99,90,100,8.57,PH,1680009696
345,Wattegama,6.7989,81.4808,78.28,71,6,5.55,LK,1680009696
346,North Augusta,33.5018,-81.9651,62.13,98,0,0.0,US,1680009696
347,Whyalla,-33.0333,137.5833,67.42,58,1,10.49,AU,1680009696
348,Matara,5.9485,80.5353,80.69,80,53,1.95,LK,1680009697
349,Leh,34.1667,77.5833,24.51,59,100,1.48,IN,1680009697
350,Kumul,42.8,93.45,62.24,11,0,2.68,CN,1680009697
351,Champasak,14.75,106.0,74.93,76,89,2.95,LA,1680009697
352,Haukipudas,65.1765,25.3523,30.25,57,100,12.28,FI,1680009698
353,Sovetskiy,61.3614,63.5842,26.85,92,100,9.6,RU,1680009698
354,Rønne,55.1009,14.7066,39.11,35,0,24.16,DK,1680009698
355,Troitskoye,52.9821,84.6757,34.93,100,100,4.83,RU,1680009698
356,Townsville,-19.25,146.8,76.08,88,75,1.14,AU,1680009698
357,Rancho Palos Verdes,33.7445,-118.387,55.89,46,16,1.99,US,1680009486
358,Constitución,-35.3333,-72.4167,61.5,40,5,2.08,CL,1680009698
359,Tuatapere,-46.1333,167.6833,41.49,71,90,1.88,NZ,1680009699
360,Balikpapan,-1.2675,116.8289,79.79,89,20,10.36,ID,1680009699
361,Saint-Pierre,-21.3393,55.4781,82.08,61,0,8.05,RE,1680009505
362,Shihezi,44.3,86.0333,54.88,44,13,7.23,CN,1680009699
363,Okhotsk,59.3833,143.3,16.84,96,100,6.87,RU,1680009699
364,Killybegs,54.6333,-8.45,53.31,93,100,8.5,IE,1680009699
365,Qaqortoq,60.7167,-46.0333,25.02,63,0,8.72,GL,1680009699
366,Gemeente Wageningen,51.9667,5.6667,48.94,58,100,12.66,NL,1680009572
367,Sakakah,29.9697,40.2064,78.37,15,0,10.04,SA,1680009699
368,Alofi,-19.0595,-169.9187,78.69,94,100,4.61,NU,1680009700
369,Jucás,-6.5253,-39.5275,82.24,69,48,3.04,BR,1680009700
370,Ürümqi,43.801,87.6005,50.95,43,0,8.95,CN,1680009472
371,Pochutla,15.7432,-96.4661,75.02,58,5,2.71,MX,1680009700
372,Halvad,23.0167,71.1833,87.67,24,0,6.24,IN,1680009700
373,Vinukonda,16.05,79.75,84.06,65,31,10.63,IN,1680009701
374,Leshukonskoye,64.8989,45.7622,26.2,81,12,4.68,RU,1680009701
375,Tarangnan,11.9009,124.7459,77.04,88,100,5.73,PH,1680009701
376,Jiménez,28.3333,-105.4,57.9,49,99,9.64,MX,1680009701
377,Sambava,-14.2667,50.1667,83.48,71,96,7.14,MG,1680009701
378,Nikol'sk,53.7189,46.0712,52.97,48,76,4.23,RU,1680009702
379,Kaitangata,-46.2817,169.8464,41.34,71,95,4.5,NZ,1680009702
380,Inhambane,-23.865,35.3833,82.38,42,40,9.84,MZ,1680009702
381,Bambous Virieux,-20.3428,57.7575,84.45,70,40,5.75,MU,1680009702
382,Chirongui,-12.9319,45.1483,84.13,72,100,3.58,YT,1680009702
383,Barabai,-2.5833,115.3833,76.28,89,85,1.66,ID,1680009702
384,Makakilo City,21.3469,-158.0858,70.12,88,0,4.61,US,1680009703
385,Havre-St-Pierre,50.2334,-63.5986,32.36,74,100,6.91,CA,1680009703
386,Nyurba,63.2842,118.3319,14.68,94,100,12.97,RU,1680009703
387,Changji,44.0167,87.3167,54.39,43,0,8.95,CN,1680009703
388,Nelson Bay,-32.7167,152.15,69.1,96,100,8.01,AU,1680009703
389,Den Helder,52.9599,4.7593,44.98,57,100,21.99,NL,1680009703
390,Askino,56.0901,56.5783,39.49,91,100,8.59,RU,1680009703
391,Saint-Michel-des-Saints,46.6834,-73.9159,19.67,92,99,4.56,CA,1680009698
392,Port Hawkesbury,45.6169,-61.3485,34.9,93,100,10.0,CA,1680009411
393,Ilhabela,-23.7781,-45.3581,78.51,71,37,3.31,BR,1680009703
394,Innisfail,-17.5333,146.0333,72.18,90,33,4.41,AU,1680009704
395,Chernyshevskiy,63.0128,112.4714,9.1,94,100,12.12,RU,1680009704
396,Dubbo,-32.25,148.6167,68.13,83,100,6.91,AU,1680009704
397,Bela,25.9333,81.9833,84.52,17,0,7.23,IN,1680009704
398,Manggar,-2.8833,108.2667,80.26,82,100,7.47,ID,1680009704
399,Bathsheba,13.2167,-59.5167,83.01,65,40,23.02,BB,1680009704
400,Council Bluffs,41.2619,-95.8608,27.48,79,0,6.91,US,1680009686
401,Nieuw Amsterdam,5.8833,-55.0833,85.01,66,40,9.22,SR,1680009705
402,Dicabisagan,17.0818,122.4157,76.1,88,31,3.0,PH,1680009705
403,Horsham,51.064,-0.3272,49.3,83,40,9.22,GB,1680009705
404,Östersund,63.1792,14.6357,24.62,53,0,15.99,SE,1680009705
405,Marsh Harbour,26.5412,-77.0636,75.7,69,100,9.22,BS,1680009705
406,Narsaq,60.9167,-46.05,35.82,64,0,8.88,GL,1680009706
407,Palmer,42.1584,-72.3287,39.45,84,100,8.05,US,1680009706
408,Walvis Bay,-22.9575,14.5053,76.15,57,0,13.8,NA,1680009706
409,Sørland,67.667,12.6934,31.86,55,0,10.36,NO,1680009706
410,Ullapool,57.8987,-5.1604,45.36,85,100,5.1,GB,1680009437
411,Morbegno,46.1383,9.57,62.15,20,35,3.42,IT,1680009707
412,Aksu,41.1231,80.2644,64.81,12,0,7.67,CN,1680009707
413,Wagar,16.1525,36.2032,94.98,12,7,13.98,SD,1680009707
414,Eyl,7.9803,49.8164,85.14,63,27,11.23,SO,1680009707
415,Nizhneivkino,58.194,49.5214,34.07,82,100,7.96,RU,1680009707
416,Mount Isa,-20.7333,139.5,74.97,64,0,1.14,AU,1680009707
417,Paramirim,-13.4425,-42.2389,85.86,35,96,6.2,BR,1680009497
418,Husavik,66.0449,-17.3389,23.97,79,100,10.13,IS,1680009708
419,Levice,48.2156,18.6071,43.5,32,99,20.33,SK,1680009441
420,Portland,45.5234,-122.6762,44.67,88,100,13.8,US,1680009101
421,Tevaitoa,-16.7833,-151.5,82.13,70,14,10.27,PF,1680009708
422,Smila,49.2224,31.8871,47.19,91,100,10.54,UA,1680009708
423,Ugoofaaru,5.6667,73.0,82.6,73,56,10.09,MV,1680009708
424,Katubao,5.8892,124.8294,80.08,84,78,2.3,PH,1680009708
425,Terme,41.2092,36.9739,53.53,90,76,1.36,TR,1680009708
426,Solton,52.8429,86.4787,33.46,98,98,1.28,RU,1680009709
427,Pacific Grove,36.6177,-121.9166,47.66,89,75,6.91,US,1680009436
428,Maraã,-1.8333,-65.3667,78.66,81,100,0.16,BR,1680009709
429,Nanortalik,60.1432,-45.2371,29.88,62,5,1.07,GL,1680009709
430,Benghazi,32.1167,20.0667,63.81,61,0,17.16,LY,1680009709
431,Middle Island,40.8843,-72.9373,43.65,90,100,6.91,US,1680009709
432,Cap Malheureux,-19.9842,57.6142,79.47,77,100,1.01,MU,1680009709
433,Naze,28.3667,129.4833,65.32,73,38,13.85,JP,1680009709
434,Gushikawa,26.3544,127.8686,67.23,77,40,3.44,JP,1680009710
435,Mil'kovo,54.7167,158.6167,18.37,89,100,3.67,RU,1680009710
436,Bilma,18.6853,12.9164,89.13,9,0,1.97,NE,1680009710
437,Moose Factory,51.2585,-80.6094,-0.4,84,40,9.22,CA,1680009710
438,Balloch,56.0,-4.5833,47.46,91,100,6.91,GB,1680009710
439,Saint-Augustin,51.226,-58.6502,34.77,69,100,9.13,CA,1680009710
440,Riwaka,-41.0833,173.0,44.01,88,40,6.69,NZ,1680009711
441,Province of Mantua,45.1667,10.7833,62.1,28,10,1.99,IT,1680009711
442,Jining,35.405,116.5814,56.97,49,100,8.95,CN,1680009711
443,Charagua,-19.8,-63.2167,72.97,77,98,10.94,BO,1680009711
444,Dullewala,31.8359,71.4362,83.37,26,0,6.89,PK,1680009711
445,Ahipara,-35.1667,173.1667,62.37,80,39,9.28,NZ,1680009711
446,Swan Hill,-35.3378,143.5544,68.86,66,100,4.56,AU,1680009711
447,Bandarbeyla,9.4942,50.8122,84.47,67,29,10.71,SO,1680009712
448,Vanimo,-2.6741,141.3028,79.14,82,92,2.44,PG,1680009712
449,Darnah,32.767,22.6367,63.75,63,0,23.53,LY,1680009712
450,Diapaga,12.0708,1.7889,101.23,14,100,3.29,BF,1680009712
451,Omaruru,-21.4333,15.9333,87.01,31,97,9.62,NA,1680009679
452,Makokou,0.5738,12.8642,85.82,55,96,3.06,GA,1680009712
453,San Felipe,10.3399,-68.7425,75.2,79,85,6.49,VE,1680009712
454,Kalofer,42.6167,24.9833,41.79,27,71,18.34,BG,1680009713
455,Tessalit,20.1986,1.0114,96.33,6,2,13.13,ML,1680009713
456,Lima,-12.0432,-77.0282,77.9,78,40,9.22,PE,1680009460
457,Shenjiamen,29.9576,122.298,52.21,81,100,6.13,CN,1680009714
458,Korla,41.7597,86.1469,61.84,16,3,4.29,CN,1680009714
459,Boa Vista,2.8197,-60.6733,80.58,61,0,11.5,BR,1680009602
460,Hrubieszów,50.805,23.8925,39.67,50,100,15.32,PL,1680009715
461,Hollola,61.05,25.4333,32.07,77,100,6.4,FI,1680009715
462,Palmas de Monte Alto,-14.2672,-43.1619,86.97,33,99,8.66,BR,1680009715
463,San Cristobal,7.7669,-72.225,68.18,66,83,4.99,VE,1680009677
464,West Wendover,40.7391,-114.0733,27.61,69,0,5.75,US,1680009715
465,Eureka,40.8021,-124.1637,46.62,95,100,8.01,US,1680009715
466,Pangnirtung,66.1451,-65.7125,6.8,66,75,2.3,CA,1680009715
467,Zamość,50.7231,23.252,38.05,60,100,18.48,PL,1680009715
468,Ovsyanka,55.9575,92.5519,42.22,94,100,12.39,RU,1680009716
469,Sola,-13.8833,167.55,82.45,73,100,7.85,VU,1680009716
470,Aykhal,66.0,111.5,-15.05,100,94,6.89,RU,1680009716
471,Izazi,-7.2,35.7333,74.07,84,100,2.59,TZ,1680009716
472,Buraidah,26.326,43.975,79.25,18,0,6.64,SA,1680009716
473,Anadyr,64.75,177.4833,21.7,79,100,17.9,RU,1680009717
474,Krasnoarmiys'k,48.282,37.1758,58.21,48,100,20.98,UA,1680009717
475,Nabire,-3.3667,135.4833,76.3,91,100,4.05,ID,1680009717
476,Zhengjiatun,43.5064,123.5064,47.35,35,0,11.03,CN,1680009717
477,Ciudad Guayana,8.3533,-62.6528,80.53,74,100,7.92,VE,1680009717
478,Mahon,39.8885,4.2658,59.56,67,40,5.75,ES,1680009717
479,Luba,3.4568,8.5547,82.29,78,100,5.79,GQ,1680009718
480,Kānt,27.8,79.8,82.02,23,7,6.6,IN,1680009718
481,Kavaratti,10.5669,72.642,81.45,73,7,13.33,IN,1680009552
482,Ayorou,14.7308,0.9174,101.97,7,15,12.12,NE,1680009718
483,Geraldton,-28.7667,114.6,73.81,56,40,11.5,AU,1680009584
484,Tautira,-17.7333,-149.15,80.51,79,99,8.63,PF,1680009718
485,Morant Bay,17.8815,-76.4093,82.02,75,75,11.79,JM,1680009718
486,Chara,56.9064,118.2631,28.76,73,100,3.18,RU,1680009718
487,Atambua,-9.1061,124.8925,73.45,89,100,2.62,ID,1680009719
488,Kandrian,-6.2167,149.55,78.06,87,100,6.17,PG,1680009719
489,Los Algarrobos,8.5,-82.4333,77.41,83,20,1.14,PA,1680009719
490,Kahului,20.8947,-156.47,71.83,82,40,5.75,US,1680009719
491,Sarakhs,36.5449,61.1577,71.74,60,40,4.61,IR,1680009719
492,Ballina,-28.8667,153.5667,71.78,82,100,1.7,AU,1680009719
493,Lublin Voivodeship,51.0,23.0,43.23,56,100,17.87,PL,1680009720
494,Portobelo,9.55,-79.65,76.1,84,77,11.1,PA,1680009720
495,Colares,38.7992,-9.4469,79.97,27,0,9.22,PT,1680009720
496,Naraini,25.1833,80.4833,87.51,14,0,5.37,IN,1680009720
497,Astoria,46.1879,-123.8313,47.91,78,100,13.8,US,1680009451
498,Azanka,58.0401,64.7893,51.39,90,98,8.86,RU,1680009720
499,Valentín Gómez Farías,28.2167,-106.5833,52.63,23,100,3.44,MX,1680009721
500,Matagami,49.7502,-77.6328,8.71,72,0,0.0,CA,1680009449
501,Kysyl-Syr,63.8986,122.7617,8.01,92,92,9.93,RU,1680009721
502,Corn Island,12.1694,-83.0418,79.27,71,20,19.6,NI,1680009721
503,Homa Bay,-0.5273,34.4571,77.77,62,11,12.35,KE,1680009721
504,Agüimes,27.9054,-15.4461,74.03,57,0,25.32,ES,1680009722
505,Pisco,-13.7,-76.2167,75.25,83,20,1.14,PE,1680009722
506,Tubualá,9.5167,-79.0333,78.44,86,96,12.57,PA,1680009723
507,Maryville,35.7565,-83.9705,52.27,80,100,10.0,US,1680009448
508,Linhares,-19.3911,-40.0722,86.14,59,38,1.7,BR,1680009723
509,Porto Velho,-8.7619,-63.9039,77.05,88,75,2.3,BR,1680009688
510,Grootfontein,-19.5667,18.1167,76.57,53,40,3.44,NA,1680009725
511,Caraballeda,10.6112,-66.8522,84.87,59,40,6.91,VE,1680009725
512,Iqaluit,63.7506,-68.5145,13.73,78,100,11.99,CA,1680009726
513,Kuressaare,58.2481,22.5039,37.02,77,75,8.05,EE,1680009726
514,Road Town,18.4167,-64.6167,80.69,61,40,11.5,VG,1680009727
515,Hvide Sande,56.0045,8.1294,45.09,69,75,12.66,DK,1680009727
516,Mikhaylovka,50.06,43.2379,58.78,37,100,11.83,RU,1680009727
517,Alpena,45.0617,-83.4327,31.1,66,0,3.0,US,1680009622
518,Kawalu,-7.3817,108.2082,75.07,95,100,1.34,ID,1680009728
519,Concarneau,47.875,-3.9225,55.69,88,100,20.51,FR,1680009728
520,Cherepovets,59.1333,37.9,35.42,87,100,11.18,RU,1680009728
521,Nantucket,41.2835,-70.0995,42.94,83,100,9.22,US,1680009729
522,Frontera,26.9333,-101.45,67.75,83,100,6.91,MX,1680009729
523,Charter Township of Clinton,42.587,-82.9199,37.22,84,0,3.44,US,1680009608
524,Puerto Limón,10.0,-83.0333,77.05,94,40,3.44,CR,1680009730
525,Benicarló,40.4165,0.4271,70.9,59,0,12.01,ES,1680009730
526,Albury,-36.0833,146.9167,65.32,100,37,1.99,AU,1680009731
527,Banjar,-8.19,114.9675,77.52,92,100,2.66,ID,1680009732
528,Batagay-Alyta,67.8006,130.4114,-5.06,100,100,4.83,RU,1680009732
529,Gangākher,18.95,76.75,92.82,12,10,6.53,IN,1680009732
530,Staunton,38.1496,-79.0717,49.39,64,0,1.99,US,1680009713
531,Necochea,-38.5473,-58.7368,73.26,53,0,20.54,AR,1680009733
532,Mar del Plata,-38.0023,-57.5575,73.94,63,0,25.32,AR,1680009610
533,Abay,49.6311,72.8539,50.38,65,0,6.58,KZ,1680009733
534,Rundu,-17.9333,19.7667,70.41,76,100,7.7,NA,1680009733
535,Sur,22.5667,59.5289,80.42,65,32,9.37,OM,1680009734
536,Goma,-1.6792,29.2228,65.34,89,100,4.68,CD,1680009734
537,Poshekhon'ye,58.4993,39.1353,42.06,77,100,7.07,RU,1680009734
538,Kailua,21.4022,-157.7394,71.58,91,98,3.18,US,1680009735
539,Baharly,38.4362,57.4316,66.94,50,100,10.18,TM,1680009736
540,Zhoucheng,35.9122,116.3117,58.14,44,100,8.43,CN,1680009736
541,Medvedevo,56.6339,47.804,40.62,80,94,7.25,RU,1680009736
542,Timrå,62.487,17.3257,29.88,43,75,14.97,SE,1680009737
543,San Quintín,30.4833,-115.95,53.46,76,3,3.11,MX,1680009737
544,Neuquén,-38.9516,-68.0591,69.69,43,0,0.0,AR,1680009693
545,Zrenjanin,45.3836,20.3819,46.98,35,90,23.04,RS,1680009738
546,San Carlos del Zulia,9.0,-71.9135,76.46,72,100,1.81,VE,1680009738
547,Kisaran,2.9845,99.6158,77.02,93,75,1.79,ID,1680009739
548,Laguna,38.421,-121.4238,55.09,67,100,9.22,US,1680009739
549,Salina Cruz,16.1667,-95.2,76.86,75,0,3.94,MX,1680009740
550,Kohlu,29.8962,69.252,73.87,25,93,14.09,PK,1680009740
551,Kagoro,9.6,8.3833,97.66,7,33,8.43,NG,1680009741
552,Ust-Kuyga,70.0167,135.6,-5.06,95,100,4.5,RU,1680009741
553,Atar,20.5169,-13.0499,96.73,5,86,12.19,MR,1680009741
554,Larsnes,62.2028,5.5773,38.01,64,100,2.77,NO,1680009741
555,Bontang,0.1333,117.5,79.56,79,100,4.05,ID,1680009742
556,Imbituba,-28.24,-48.6703,74.86,60,0,9.08,BR,1680009742
557,Desert Hot Springs,33.9611,-116.5017,54.95,46,0,8.05,US,1680009742
558,Sabang,5.8933,95.3214,82.83,74,100,5.35,ID,1680009743
559,Ipixuna,-1.7625,-48.8043,79.57,89,100,2.33,BR,1680009743
560,Magadan,59.5667,150.8,2.39,100,100,1.59,RU,1680009743
561,Luwuk,-0.9516,122.7875,77.76,89,100,4.32,ID,1680009744
562,Sokoni,-6.4333,39.55,91.26,71,100,5.99,TZ,1680009744
563,Tlaxco,19.6167,-98.1167,55.44,72,9,1.66,MX,1680009745
564,Kodinsk,58.6881,99.1844,21.83,92,100,2.44,RU,1680009745
565,Port Lincoln,-34.7333,135.8667,62.94,83,6,12.24,AU,1680009746
566,Bāfq,31.6128,55.4107,73.26,25,70,12.06,IR,1680009746
567,Serenje,-13.2325,30.2352,68.77,82,82,8.25,ZM,1680009746
568,Clarence Town,-32.5833,151.7833,68.95,97,100,3.29,AU,1680009746
569,Shenzhen,22.5455,114.0683,70.38,93,100,4.52,CN,1680009747
570,Sekoma,-24.4,23.8833,79.68,41,4,15.57,BW,1680009747
571,Hobbs,32.7026,-103.136,32.59,35,20,11.5,US,1680009748
572,Pointe Michel,15.25,-61.3833,81.54,50,20,5.75,DM,1680009748
573,Skjervøy,70.0311,20.9714,28.4,51,3,1.61,NO,1680009748
574,Steinbach am Taunus,50.1667,8.5667,50.99,46,0,8.05,DE,1680009749
575,Aripuanã,-9.1667,-60.6333,80.1,78,78,2.21,BR,1680009749
576,Romitan,39.9343,64.3814,80.55,28,0,9.22,UZ,1680009750
577,Lathrop,37.8227,-121.2766,51.94,59,100,16.11,US,1680009750
578,Dongsheng,39.8161,109.9776,47.37,20,0,5.48,CN,1680009751
579,Chase,50.8165,-119.6857,28.33,97,88,2.75,CA,1680009751
580,Verkhnyaya Inta,65.9811,60.3094,10.54,87,16,2.89,RU,1680009752
581,Mbanza-Ngungu,-5.25,14.8667,80.24,67,73,5.17,CD,1680009752
582,Piranshahr,36.701,45.1413,55.26,62,39,9.48,IR,1680009752
583,Green River,41.5286,-109.4662,16.2,69,100,1.99,US,1680009753
584,Imeni Babushkina,59.7573,43.1285,32.5,84,100,5.1,RU,1680009753
585,Neiafu,-18.65,-173.9833,81.28,89,40,10.36,TO,1680009753
586,Boca do Acre,-8.7522,-67.3978,77.34,90,89,1.14,BR,1680009754
587,Bariloche,-41.1456,-71.3082,46.15,49,20,19.57,AR,1680009754
588,Imeni Zhelyabova,58.9544,36.5956,38.25,92,100,7.36,RU,1680009754
589,Araouane,18.9048,-3.5265,100.42,5,100,19.84,ML,1680009754
